[
  {
    "id": 1,
    "external_id": "13126",
    "name": "Thiruvallur",
    "city": "Private",
    "specialists": [
      "General Medicine"
    ],
    "insurance": [
      "H_26332"
    ],
    "fee": 327,
    "rating": 4.4,
    "reviews": "Processed via AI: Highly recommended for General Medicine",
    "location": {
      "lat": 11.102749616388268,
      "lng": 78.70132985527334
    }
  },
  {
    "id": 2,
    "external_id": "11219",
    "name": "A.S Imaging Centre Pvt Ltd, Ariyalur TN.",
    "city": "Ariyalur",
    "specialists": [
      "Radiologist"
    ],
    "insurance": [
      "MA"
    ],
    "fee": 370,
    "rating": 4.3,
    "reviews": "Processed via AI: Highly recommended for Radiologist",
    "location": {
      "lat": 11.165036897128001,
      "lng": 79.10466272571983
    }
  },
  {
    "id": 3,
    "external_id": "11220",
    "name": "Ariyalur Golden Hospital Pvt.Ltd, Ariyalur TN.",
    "city": "Ariyalur",
    "specialists": [
      "General Medicine"
    ],
    "insurance": [
      "MA"
    ],
    "fee": 494,
    "rating": 4.4,
    "reviews": "Processed via AI: Highly recommended for General Medicine",
    "location": {
      "lat": 11.163544107014296,
      "lng": 79.11845994170176
    }
  },
  {
    "id": 4,
    "external_id": "11207",
    "name": "DEIC , Ariyalur TN.",
    "city": "Ariyalur",
    "specialists": [
      "General Medicine"
    ],
    "insurance": [
      "MA"
    ],
    "fee": 332,
    "rating": 3.5,
    "reviews": "Processed via AI: Highly recommended for General Medicine",
    "location": {
      "lat": 11.139754315898394,
      "lng": 79.04036898888342
    }
  },
  {
    "id": 5,
    "external_id": "11206",
    "name": "District Diff. abled welfare office,Ariyalur TN.",
    "city": "Ariyalur",
    "specialists": [
      "General Medicine"
    ],
    "insurance": [
      "MA"
    ],
    "fee": 359,
    "rating": 3.7,
    "reviews": "Processed via AI: Highly recommended for General Medicine",
    "location": {
      "lat": 11.104105928173007,
      "lng": 79.02877651932823
    }
  },
  {
    "id": 6,
    "external_id": "11212",
    "name": "Govt Andimadam UPHC, Ariyalur TN.",
    "city": "Ariyalur",
    "specialists": [
      "General Medicine"
    ],
    "insurance": [
      "MA",
      "CMCHIS (Govt Scheme)",
      "PMJAY"
    ],
    "fee": 0,
    "rating": 3.7,
    "reviews": "Processed via AI: Highly recommended for General Medicine",
    "location": {
      "lat": 11.116868072551354,
      "lng": 79.05763929466585
    }
  },
  {
    "id": 7,
    "external_id": "11211",
    "name": "Govt Hospital, Sendurai, Ariyalur TN.",
    "city": "Ariyalur",
    "specialists": [
      "General Medicine"
    ],
    "insurance": [
      "MA",
      "CMCHIS (Govt Scheme)",
      "PMJAY"
    ],
    "fee": 0,
    "rating": 3.6,
    "reviews": "Processed via AI: Highly recommended for General Medicine",
    "location": {
      "lat": 11.155630610549993,
      "lng": 79.03573821607932
    }
  },
  {
    "id": 8,
    "external_id": "11210",
    "name": "Govt Hospital, Udayarpalayam, Ariyalur TN.",
    "city": "Ariyalur",
    "specialists": [
      "General Medicine"
    ],
    "insurance": [
      "MA",
      "CMCHIS (Govt Scheme)",
      "PMJAY"
    ],
    "fee": 0,
    "rating": 4.6,
    "reviews": "Processed via AI: Highly recommended for General Medicine",
    "location": {
      "lat": 11.177049539066186,
      "lng": 79.1087714237685
    }
  },
  {
    "id": 9,
    "external_id": "11217",
    "name": "Govt Kadugur UPHC, Ariyalur TN.",
    "city": "Ariyalur",
    "specialists": [
      "General Medicine"
    ],
    "insurance": [
      "MA",
      "CMCHIS (Govt Scheme)",
      "PMJAY"
    ],
    "fee": 0,
    "rating": 4.8,
    "reviews": "Processed via AI: Highly recommended for General Medicine",
    "location": {
      "lat": 11.137824429041022,
      "lng": 79.04418785854563
    }
  },
  {
    "id": 10,
    "external_id": "11214",
    "name": "Govt Kumiliyam UPHC, Sendurai,  Ariyalur TN.",
    "city": "Ariyalur",
    "specialists": [
      "General Medicine"
    ],
    "insurance": [
      "MA",
      "CMCHIS (Govt Scheme)",
      "PMJAY"
    ],
    "fee": 0,
    "rating": 4.1,
    "reviews": "Processed via AI: Highly recommended for General Medicine",
    "location": {
      "lat": 11.121207171501844,
      "lng": 79.04130049786976
    }
  },
  {
    "id": 11,
    "external_id": "11213",
    "name": "Govt Meensurtty UPHC, Jayankondam, Ariyalur TN.",
    "city": "Ariyalur",
    "specialists": [
      "General Medicine"
    ],
    "insurance": [
      "MA",
      "CMCHIS (Govt Scheme)",
      "PMJAY"
    ],
    "fee": 0,
    "rating": 4.5,
    "reviews": "Processed via AI: Highly recommended for General Medicine",
    "location": {
      "lat": 11.12016912696667,
      "lng": 79.11637871293743
    }
  },
  {
    "id": 12,
    "external_id": "11215",
    "name": "Govt T.Palur UPHC, Ariyalur TN.",
    "city": "Ariyalur",
    "specialists": [
      "General Medicine"
    ],
    "insurance": [
      "MA",
      "CMCHIS (Govt Scheme)",
      "PMJAY"
    ],
    "fee": 0,
    "rating": 4,
    "reviews": "Processed via AI: Highly recommended for General Medicine",
    "location": {
      "lat": 11.112358921265416,
      "lng": 79.03969907781756
    }
  },
  {
    "id": 13,
    "external_id": "11216",
    "name": "Govt Thirumanur UPHC,  Ariyalur TN.",
    "city": "Ariyalur",
    "specialists": [
      "General Medicine"
    ],
    "insurance": [
      "MA",
      "CMCHIS (Govt Scheme)",
      "PMJAY"
    ],
    "fee": 0,
    "rating": 4.1,
    "reviews": "Processed via AI: Highly recommended for General Medicine",
    "location": {
      "lat": 11.130624664870505,
      "lng": 79.06316034326504
    }
  },
  {
    "id": 14,
    "external_id": "11208",
    "name": "Govt. Medical College and Hosp, Ariyalur TN.",
    "city": "Ariyalur",
    "specialists": [
      "General Medicine"
    ],
    "insurance": [
      "MA",
      "CMCHIS (Govt Scheme)",
      "PMJAY"
    ],
    "fee": 0,
    "rating": 4.9,
    "reviews": "Processed via AI: Highly recommended for General Medicine",
    "location": {
      "lat": 11.113008487108738,
      "lng": 79.07158183328221
    }
  },
  {
    "id": 15,
    "external_id": "11209",
    "name": "Govt.Head Qrtrs Jayakondam,Ariyalur TN.",
    "city": "Ariyalur",
    "specialists": [
      "General Medicine"
    ],
    "insurance": [
      "MA",
      "CMCHIS (Govt Scheme)",
      "PMJAY"
    ],
    "fee": 0,
    "rating": 4,
    "reviews": "Processed via AI: Highly recommended for General Medicine",
    "location": {
      "lat": 11.178741150067557,
      "lng": 79.02946871968379
    }
  },
  {
    "id": 16,
    "external_id": "11218",
    "name": "KVS Scans and Diagnostic, Ariyalur DC.",
    "city": "Ariyalur",
    "specialists": [
      "Radiologist"
    ],
    "insurance": [
      "MA"
    ],
    "fee": 434,
    "rating": 3.7,
    "reviews": "Processed via AI: Highly recommended for Radiologist",
    "location": {
      "lat": 11.13171034093395,
      "lng": 79.1146389971541
    }
  },
  {
    "id": 17,
    "external_id": "11222",
    "name": "Nalam Multispeciality Hospital, Ariyalur TN. ",
    "city": "Ariyalur",
    "specialists": [
      "General Physician",
      "Cardiologist",
      "Orthopedic Surgeon"
    ],
    "insurance": [
      "MA"
    ],
    "fee": 723,
    "rating": 4.2,
    "reviews": "Processed via AI: Highly recommended for General Physician",
    "location": {
      "lat": 11.120826138385155,
      "lng": 79.09799218332404
    }
  },
  {
    "id": 18,
    "external_id": "11221",
    "name": "New life Critical Care Centre, Ariyalur TN.",
    "city": "Ariyalur",
    "specialists": [
      "ENT Specialist"
    ],
    "insurance": [
      "MA"
    ],
    "fee": 574,
    "rating": 3.9,
    "reviews": "Processed via AI: Highly recommended for ENT Specialist",
    "location": {
      "lat": 11.169071893611838,
      "lng": 79.08718846254743
    }
  },
  {
    "id": 19,
    "external_id": "11248",
    "name": "Aarthi Scans, Chengalpet DC.",
    "city": "Chengalpet",
    "specialists": [
      "Radiologist"
    ],
    "insurance": [
      "MA"
    ],
    "fee": 446,
    "rating": 3.8,
    "reviews": "Processed via AI: Highly recommended for Radiologist",
    "location": {
      "lat": 11.14036088187635,
      "lng": 78.6312179898705
    }
  },
  {
    "id": 20,
    "external_id": "11246",
    "name": "Absolute Special School, Autism, Chengalpattu, TN. ",
    "city": "Chengalpet",
    "specialists": [
      "General Medicine"
    ],
    "insurance": [
      "MA"
    ],
    "fee": 644,
    "rating": 4.4,
    "reviews": "Processed via AI: Highly recommended for General Medicine",
    "location": {
      "lat": 11.090370728112926,
      "lng": 78.62941717068796
    }
  },
  {
    "id": 21,
    "external_id": "11253",
    "name": "Annai Arul Hospital, Chengalpet TN.",
    "city": "Chengalpet",
    "specialists": [
      "General Medicine"
    ],
    "insurance": [
      "MA"
    ],
    "fee": 338,
    "rating": 4.3,
    "reviews": "Processed via AI: Highly recommended for General Medicine",
    "location": {
      "lat": 11.14239828949848,
      "lng": 78.63990430093538
    }
  },
  {
    "id": 22,
    "external_id": "11274",
    "name": "Apollo Speciality Hosptial, OMR, Chengalpet TN.",
    "city": "Chengalpet",
    "specialists": [
      "General Medicine"
    ],
    "insurance": [
      "MA"
    ],
    "fee": 405,
    "rating": 4,
    "reviews": "Processed via AI: Highly recommended for General Medicine",
    "location": {
      "lat": 11.094123035654075,
      "lng": 78.67524675103282
    }
  },
  {
    "id": 23,
    "external_id": "11249",
    "name": "Arya Scans, Chengalpet DC.",
    "city": "Chengalpet",
    "specialists": [
      "Radiologist"
    ],
    "insurance": [
      "MA"
    ],
    "fee": 501,
    "rating": 3.6,
    "reviews": "Processed via AI: Highly recommended for Radiologist",
    "location": {
      "lat": 11.128222270879565,
      "lng": 78.69886682242858
    }
  },
  {
    "id": 24,
    "external_id": "11276",
    "name": "B.M Hospital, Nanganallur, Chengalpet TN.",
    "city": "Chengalpet",
    "specialists": [
      "General Medicine"
    ],
    "insurance": [
      "MA"
    ],
    "fee": 786,
    "rating": 4.6,
    "reviews": "Processed via AI: Highly recommended for General Medicine",
    "location": {
      "lat": 11.161751609450073,
      "lng": 78.67716006551643
    }
  },
  {
    "id": 25,
    "external_id": "11259",
    "name": "Balaji Hospital, Chengalpet TN.",
    "city": "Chengalpet",
    "specialists": [
      "General Medicine"
    ],
    "insurance": [
      "MA"
    ],
    "fee": 309,
    "rating": 4.8,
    "reviews": "Processed via AI: Highly recommended for General Medicine",
    "location": {
      "lat": 11.082445180717,
      "lng": 78.65451656228574
    }
  },
  {
    "id": 26,
    "external_id": "11283",
    "name": "Bharath Medical Col and Hosp, Chengalpet TN.",
    "city": "Chengalpet",
    "specialists": [
      "General Medicine"
    ],
    "insurance": [
      "MA"
    ],
    "fee": 542,
    "rating": 3.8,
    "reviews": "Processed via AI: Highly recommended for General Medicine",
    "location": {
      "lat": 11.162902150225086,
      "lng": 78.64815780338354
    }
  },
  {
    "id": 27,
    "external_id": "11280",
    "name": "C-Dot Hospital, Chengalpet TN.",
    "city": "Chengalpet",
    "specialists": [
      "General Medicine"
    ],
    "insurance": [
      "MA"
    ],
    "fee": 428,
    "rating": 3.8,
    "reviews": "Processed via AI: Highly recommended for General Medicine",
    "location": {
      "lat": 11.102154836901473,
      "lng": 78.62513784559121
    }
  },
  {
    "id": 28,
    "external_id": "11225",
    "name": "Chengalpet Medical College, Chengalpet TN.",
    "city": "Chengalpet",
    "specialists": [
      "General Medicine"
    ],
    "insurance": [
      "MA",
      "CMCHIS (Govt Scheme)",
      "PMJAY"
    ],
    "fee": 0,
    "rating": 4,
    "reviews": "Processed via AI: Highly recommended for General Medicine",
    "location": {
      "lat": 11.118785463422967,
      "lng": 78.70519209617527
    }
  },
  {
    "id": 29,
    "external_id": "11277",
    "name": "Chennai Urology And Robotics Inst, OMR, Chengalpet  TN.",
    "city": "Chengalpet",
    "specialists": [
      "General Medicine"
    ],
    "insurance": [
      "MA"
    ],
    "fee": 495,
    "rating": 3.6,
    "reviews": "Processed via AI: Highly recommended for General Medicine",
    "location": {
      "lat": 11.132548987142624,
      "lng": 78.63669110014821
    }
  },
  {
    "id": 30,
    "external_id": "11293",
    "name": "Chettinad Hospital and Res Ins, Chengalpet TN.",
    "city": "Chengalpet",
    "specialists": [
      "General Medicine"
    ],
    "insurance": [
      "MA"
    ],
    "fee": 431,
    "rating": 3.6,
    "reviews": "Processed via AI: Highly recommended for General Medicine",
    "location": {
      "lat": 11.093521619059446,
      "lng": 78.6549440541475
    }
  },
  {
    "id": 31,
    "external_id": "11260",
    "name": "Chettinad Super Speciality Hosp, Chengalpet TN.",
    "city": "Chengalpet",
    "specialists": [
      "General Medicine"
    ],
    "insurance": [
      "MA"
    ],
    "fee": 799,
    "rating": 4.4,
    "reviews": "Processed via AI: Highly recommended for General Medicine",
    "location": {
      "lat": 11.140742274486387,
      "lng": 78.66545882442654
    }
  },
  {
    "id": 32,
    "external_id": "11266",
    "name": "Dr Kamakshi Memorial Hospital, Chengalpet TN.",
    "city": "Chengalpet",
    "specialists": [
      "General Medicine"
    ],
    "insurance": [
      "MA"
    ],
    "fee": 780,
    "rating": 4.2,
    "reviews": "Processed via AI: Highly recommended for General Medicine",
    "location": {
      "lat": 11.0800305622466,
      "lng": 78.69251913099079
    }
  },
  {
    "id": 33,
    "external_id": "11271",
    "name": "Dr Kumars Health Care Pvt Ltd, Chengalpet, TN.",
    "city": "Chengalpet",
    "specialists": [
      "General Medicine"
    ],
    "insurance": [
      "MA"
    ],
    "fee": 769,
    "rating": 4.2,
    "reviews": "Processed via AI: Highly recommended for General Medicine",
    "location": {
      "lat": 11.14950746283794,
      "lng": 78.63979547684954
    }
  },
  {
    "id": 34,
    "external_id": "11278",
    "name": "Dr. Rela Inst. and Medical Centre, Chengalpet TN.",
    "city": "Chengalpet",
    "specialists": [
      "ENT Specialist"
    ],
    "insurance": [
      "MA"
    ],
    "fee": 406,
    "rating": 4.4,
    "reviews": "Processed via AI: Highly recommended for ENT Specialist",
    "location": {
      "lat": 11.146794354461598,
      "lng": 78.63707941176717
    }
  },
  {
    "id": 35,
    "external_id": "11284",
    "name": "Easy mom Fertility,maternity, Chengalpet TN.",
    "city": "Chengalpet",
    "specialists": [
      "Gynecologist",
      "Pediatrician"
    ],
    "insurance": [
      "MA"
    ],
    "fee": 715,
    "rating": 4.3,
    "reviews": "Processed via AI: Highly recommended for Gynecologist",
    "location": {
      "lat": 11.147532103694704,
      "lng": 78.63848064426126
    }
  },
  {
    "id": 36,
    "external_id": "11281",
    "name": "Gem Hospital And Res Centre Pvt Ltd, Chengalpet TN.",
    "city": "Chengalpet",
    "specialists": [
      "ENT Specialist"
    ],
    "insurance": [
      "MA"
    ],
    "fee": 568,
    "rating": 4.2,
    "reviews": "Processed via AI: Highly recommended for ENT Specialist",
    "location": {
      "lat": 11.113464480868947,
      "lng": 78.66718738380229
    }
  },
  {
    "id": 37,
    "external_id": "11251",
    "name": "Genorime Pvt Ltd, Chengalpet, DC.",
    "city": "Chengalpet",
    "specialists": [
      "General Medicine"
    ],
    "insurance": [
      "MA"
    ],
    "fee": 534,
    "rating": 4.6,
    "reviews": "Processed via AI: Highly recommended for General Medicine",
    "location": {
      "lat": 11.146588934784056,
      "lng": 78.62880022347514
    }
  },
  {
    "id": 38,
    "external_id": "11254",
    "name": "Gleneagles Global Health City, Chengalpet TN.",
    "city": "Chengalpet",
    "specialists": [
      "General Medicine"
    ],
    "insurance": [
      "MA"
    ],
    "fee": 669,
    "rating": 4.6,
    "reviews": "Processed via AI: Highly recommended for General Medicine",
    "location": {
      "lat": 11.10862212998458,
      "lng": 78.61757047761489
    }
  },
  {
    "id": 39,
    "external_id": "11229",
    "name": "Govt Head Qrtrs Hospital, Tambaram, Chengalpet TN.",
    "city": "Chengalpet",
    "specialists": [
      "General Medicine"
    ],
    "insurance": [
      "MA",
      "CMCHIS (Govt Scheme)",
      "PMJAY"
    ],
    "fee": 0,
    "rating": 4.3,
    "reviews": "Processed via AI: Highly recommended for General Medicine",
    "location": {
      "lat": 11.082054605620472,
      "lng": 78.6627800490364
    }
  },
  {
    "id": 40,
    "external_id": "11227",
    "name": "Govt Hospital, Cheyyur Chengalpet TN.",
    "city": "Chengalpet",
    "specialists": [
      "General Medicine"
    ],
    "insurance": [
      "MA",
      "CMCHIS (Govt Scheme)",
      "PMJAY"
    ],
    "fee": 0,
    "rating": 4.2,
    "reviews": "Processed via AI: Highly recommended for General Medicine",
    "location": {
      "lat": 11.167544266429406,
      "lng": 78.62654661206113
    }
  },
  {
    "id": 41,
    "external_id": "11228",
    "name": "Govt Hospital, Madhurandaham Chengalpet TN.",
    "city": "Chengalpet",
    "specialists": [
      "General Medicine"
    ],
    "insurance": [
      "MA",
      "CMCHIS (Govt Scheme)",
      "PMJAY"
    ],
    "fee": 0,
    "rating": 4.3,
    "reviews": "Processed via AI: Highly recommended for General Medicine",
    "location": {
      "lat": 11.176760011688474,
      "lng": 78.69190473933773
    }
  },
  {
    "id": 42,
    "external_id": "11230",
    "name": "Govt Hospital, Thiruporur, Chengalpet TN.",
    "city": "Chengalpet",
    "specialists": [
      "General Medicine"
    ],
    "insurance": [
      "MA",
      "CMCHIS (Govt Scheme)",
      "PMJAY"
    ],
    "fee": 0,
    "rating": 3.6,
    "reviews": "Processed via AI: Highly recommended for General Medicine",
    "location": {
      "lat": 11.110115227886016,
      "lng": 78.6398696477292
    }
  },
  {
    "id": 43,
    "external_id": "11231",
    "name": "Govt Hospital,Injabakkam,Chengalpet TN.",
    "city": "Chengalpet",
    "specialists": [
      "General Medicine"
    ],
    "insurance": [
      "MA",
      "CMCHIS (Govt Scheme)",
      "PMJAY"
    ],
    "fee": 0,
    "rating": 4.6,
    "reviews": "Processed via AI: Highly recommended for General Medicine",
    "location": {
      "lat": 11.142908652929748,
      "lng": 78.60920624364398
    }
  },
  {
    "id": 44,
    "external_id": "11232",
    "name": "Govt Hospital,Mahabalipuram, Chengalpet TN.",
    "city": "Chengalpet",
    "specialists": [
      "General Medicine"
    ],
    "insurance": [
      "MA",
      "CMCHIS (Govt Scheme)",
      "PMJAY"
    ],
    "fee": 0,
    "rating": 4.5,
    "reviews": "Processed via AI: Highly recommended for General Medicine",
    "location": {
      "lat": 11.167736126155011,
      "lng": 78.70403852000852
    }
  },
  {
    "id": 45,
    "external_id": "11233",
    "name": "Govt Hospital,Thirukalukundram,Chengalpet TN.",
    "city": "Chengalpet",
    "specialists": [
      "General Medicine"
    ],
    "insurance": [
      "MA",
      "CMCHIS (Govt Scheme)",
      "PMJAY"
    ],
    "fee": 0,
    "rating": 3.5,
    "reviews": "Processed via AI: Highly recommended for General Medicine",
    "location": {
      "lat": 11.108474955705422,
      "lng": 78.64957369055979
    }
  },
  {
    "id": 46,
    "external_id": "11224",
    "name": "Govt PHC, Nandhivaram, Chengalpattu, TN. ",
    "city": "Chengalpet",
    "specialists": [
      "General Medicine"
    ],
    "insurance": [
      "MA"
    ],
    "fee": 441,
    "rating": 3.9,
    "reviews": "Processed via AI: Highly recommended for General Medicine",
    "location": {
      "lat": 11.117479965725257,
      "lng": 78.64775407316088
    }
  },
  {
    "id": 47,
    "external_id": "11226",
    "name": "Govt Sanatorium, Chengalpet TN.",
    "city": "Chengalpet",
    "specialists": [
      "General Medicine"
    ],
    "insurance": [
      "MA",
      "CMCHIS (Govt Scheme)",
      "PMJAY"
    ],
    "fee": 0,
    "rating": 4.1,
    "reviews": "Processed via AI: Highly recommended for General Medicine",
    "location": {
      "lat": 11.144384925340132,
      "lng": 78.69774743269656
    }
  },
  {
    "id": 48,
    "external_id": "11223",
    "name": "Govt.DDWO,Chengalpattu TN. ",
    "city": "Chengalpet",
    "specialists": [
      "General Medicine"
    ],
    "insurance": [
      "MA"
    ],
    "fee": 625,
    "rating": 4.7,
    "reviews": "Processed via AI: Highly recommended for General Medicine",
    "location": {
      "lat": 11.154542899892538,
      "lng": 78.60996037240639
    }
  },
  {
    "id": 49,
    "external_id": "11241",
    "name": "Govt.PHC St.Thomas mount,Chengalpattu TN.",
    "city": "Chengalpet",
    "specialists": [
      "General Medicine"
    ],
    "insurance": [
      "MA",
      "CMCHIS (Govt Scheme)",
      "PMJAY"
    ],
    "fee": 0,
    "rating": 4,
    "reviews": "Processed via AI: Highly recommended for General Medicine",
    "location": {
      "lat": 11.104838119853191,
      "lng": 78.68974399912996
    }
  },
  {
    "id": 50,
    "external_id": "11242",
    "name": "Govt.PHC Tiruporur,Chengalpattu TN.",
    "city": "Chengalpet",
    "specialists": [
      "General Medicine"
    ],
    "insurance": [
      "MA",
      "CMCHIS (Govt Scheme)",
      "PMJAY"
    ],
    "fee": 0,
    "rating": 4.8,
    "reviews": "Processed via AI: Highly recommended for General Medicine",
    "location": {
      "lat": 11.129831907924583,
      "lng": 78.62939981046051
    }
  },
  {
    "id": 51,
    "external_id": "11243",
    "name": "Govt.PHC,Chithamur,idaikalinadu,Chengulpet TN.",
    "city": "Chengalpet",
    "specialists": [
      "General Medicine"
    ],
    "insurance": [
      "MA",
      "CMCHIS (Govt Scheme)",
      "PMJAY"
    ],
    "fee": 0,
    "rating": 3.6,
    "reviews": "Processed via AI: Highly recommended for General Medicine",
    "location": {
      "lat": 11.156269311076004,
      "lng": 78.67480412356417
    }
  },
  {
    "id": 52,
    "external_id": "11244",
    "name": "Govt.PHC,Tirukalukundram,Sadras,Chengulpet TN.",
    "city": "Chengalpet",
    "specialists": [
      "General Medicine"
    ],
    "insurance": [
      "MA",
      "CMCHIS (Govt Scheme)",
      "PMJAY"
    ],
    "fee": 0,
    "rating": 4.4,
    "reviews": "Processed via AI: Highly recommended for General Medicine",
    "location": {
      "lat": 11.16230354549238,
      "lng": 78.6619901330144
    }
  },
  {
    "id": 53,
    "external_id": "11234",
    "name": "Govt.UPHC Achirapakkam,Chengalpattu TN.",
    "city": "Chengalpet",
    "specialists": [
      "General Medicine"
    ],
    "insurance": [
      "MA",
      "CMCHIS (Govt Scheme)",
      "PMJAY"
    ],
    "fee": 0,
    "rating": 4.6,
    "reviews": "Processed via AI: Highly recommended for General Medicine",
    "location": {
      "lat": 11.168501767370884,
      "lng": 78.64287747280001
    }
  },
  {
    "id": 54,
    "external_id": "11235",
    "name": "Govt.UPHC Chunamed,Chengalpattu TN. ",
    "city": "Chengalpet",
    "specialists": [
      "General Medicine"
    ],
    "insurance": [
      "MA",
      "CMCHIS (Govt Scheme)",
      "PMJAY"
    ],
    "fee": 0,
    "rating": 4.2,
    "reviews": "Processed via AI: Highly recommended for General Medicine",
    "location": {
      "lat": 11.144638467318977,
      "lng": 78.66176307840941
    }
  },
  {
    "id": 55,
    "external_id": "11237",
    "name": "Govt.UPHC Kelambakkam,Chengalpattu TN.",
    "city": "Chengalpet",
    "specialists": [
      "General Medicine"
    ],
    "insurance": [
      "MA",
      "CMCHIS (Govt Scheme)",
      "PMJAY"
    ],
    "fee": 0,
    "rating": 4.8,
    "reviews": "Processed via AI: Highly recommended for General Medicine",
    "location": {
      "lat": 11.121464899502463,
      "lng": 78.66634253227616
    }
  },
  {
    "id": 56,
    "external_id": "11240",
    "name": "Govt.UPHC Madhuranthagam ,Chengalpattu TN.",
    "city": "Chengalpet",
    "specialists": [
      "General Medicine"
    ],
    "insurance": [
      "MA",
      "CMCHIS (Govt Scheme)",
      "PMJAY"
    ],
    "fee": 0,
    "rating": 3.9,
    "reviews": "Processed via AI: Highly recommended for General Medicine",
    "location": {
      "lat": 11.147510227531743,
      "lng": 78.70039882070468
    }
  },
  {
    "id": 57,
    "external_id": "11239",
    "name": "Govt.UPHC Medavakkam,Chengalpattu TN.",
    "city": "Chengalpet",
    "specialists": [
      "General Medicine"
    ],
    "insurance": [
      "MA",
      "CMCHIS (Govt Scheme)",
      "PMJAY"
    ],
    "fee": 0,
    "rating": 3.6,
    "reviews": "Processed via AI: Highly recommended for General Medicine",
    "location": {
      "lat": 11.105322989142579,
      "lng": 78.65552661957459
    }
  },
  {
    "id": 58,
    "external_id": "11238",
    "name": "Govt.UPHC Nandhivaram,Chengalpattu TN. ",
    "city": "Chengalpet",
    "specialists": [
      "General Medicine"
    ],
    "insurance": [
      "MA",
      "CMCHIS (Govt Scheme)",
      "PMJAY"
    ],
    "fee": 0,
    "rating": 3.5,
    "reviews": "Processed via AI: Highly recommended for General Medicine",
    "location": {
      "lat": 11.086749377298128,
      "lng": 78.65648779127744
    }
  },
  {
    "id": 59,
    "external_id": "11236",
    "name": "Govt.UPHC Pavanjur,Chengalpattu TN.",
    "city": "Chengalpet",
    "specialists": [
      "General Medicine"
    ],
    "insurance": [
      "MA",
      "CMCHIS (Govt Scheme)",
      "PMJAY"
    ],
    "fee": 0,
    "rating": 3.8,
    "reviews": "Processed via AI: Highly recommended for General Medicine",
    "location": {
      "lat": 11.135017808394213,
      "lng": 78.6812681091866
    }
  },
  {
    "id": 60,
    "external_id": "11245",
    "name": "Govt.UPHC Semmancherry, Chengalpattu TN.  ",
    "city": "Chengalpet",
    "specialists": [
      "General Medicine"
    ],
    "insurance": [
      "MA",
      "CMCHIS (Govt Scheme)",
      "PMJAY"
    ],
    "fee": 0,
    "rating": 4,
    "reviews": "Processed via AI: Highly recommended for General Medicine",
    "location": {
      "lat": 11.120363743973579,
      "lng": 78.64717120145654
    }
  },
  {
    "id": 61,
    "external_id": "11267",
    "name": "Hariharan Diabetes, Chengalpet TN.",
    "city": "Chengalpet",
    "specialists": [
      "General Medicine"
    ],
    "insurance": [
      "MA"
    ],
    "fee": 302,
    "rating": 4.4,
    "reviews": "Processed via AI: Highly recommended for General Medicine",
    "location": {
      "lat": 11.131159405645763,
      "lng": 78.65401144864272
    }
  },
  {
    "id": 62,
    "external_id": "11255",
    "name": "Hindu Mission Health Services, Chengalpet TN.",
    "city": "Chengalpet",
    "specialists": [
      "General Medicine"
    ],
    "insurance": [
      "MA"
    ],
    "fee": 354,
    "rating": 4,
    "reviews": "Processed via AI: Highly recommended for General Medicine",
    "location": {
      "lat": 11.084658972074882,
      "lng": 78.6997965973556
    }
  },
  {
    "id": 63,
    "external_id": "11256",
    "name": "Hindu Mission Hospital, Chengalpet TN.",
    "city": "Chengalpet",
    "specialists": [
      "General Medicine"
    ],
    "insurance": [
      "MA"
    ],
    "fee": 592,
    "rating": 4.8,
    "reviews": "Processed via AI: Highly recommended for General Medicine",
    "location": {
      "lat": 11.144716092150796,
      "lng": 78.66974466168409
    }
  },
  {
    "id": 64,
    "external_id": "11291",
    "name": "Jeevan Sumyuktha Hospitals, Chengalpet TN.",
    "city": "Chengalpet",
    "specialists": [
      "General Medicine"
    ],
    "insurance": [
      "MA"
    ],
    "fee": 709,
    "rating": 4.1,
    "reviews": "Processed via AI: Highly recommended for General Medicine",
    "location": {
      "lat": 11.078261783331074,
      "lng": 78.61643882927129
    }
  },
  {
    "id": 65,
    "external_id": "11296",
    "name": "JJ Hospital, Chengalpet, TN.",
    "city": "Chengalpet",
    "specialists": [
      "General Medicine"
    ],
    "insurance": [
      "MA"
    ],
    "fee": 433,
    "rating": 4.6,
    "reviews": "Processed via AI: Highly recommended for General Medicine",
    "location": {
      "lat": 11.085247641126228,
      "lng": 78.67568289940156
    }
  },
  {
    "id": 66,
    "external_id": "11287",
    "name": "Jolen Hospital, Chengalpet TN.",
    "city": "Chengalpet",
    "specialists": [
      "General Medicine"
    ],
    "insurance": [
      "MA"
    ],
    "fee": 625,
    "rating": 3.8,
    "reviews": "Processed via AI: Highly recommended for General Medicine",
    "location": {
      "lat": 11.167310498485858,
      "lng": 78.67311297570514
    }
  },
  {
    "id": 67,
    "external_id": "11292",
    "name": "JSP Hospital Pvt Ltd, Chengalpet TN.",
    "city": "Chengalpet",
    "specialists": [
      "General Medicine"
    ],
    "insurance": [
      "MA"
    ],
    "fee": 330,
    "rating": 4.3,
    "reviews": "Processed via AI: Highly recommended for General Medicine",
    "location": {
      "lat": 11.09515588827985,
      "lng": 78.66751539118053
    }
  },
  {
    "id": 68,
    "external_id": "11268",
    "name": "Karpaga Vinyaga Institute, Chengalpet,TN.",
    "city": "Chengalpet",
    "specialists": [
      "General Medicine"
    ],
    "insurance": [
      "MA"
    ],
    "fee": 514,
    "rating": 4.9,
    "reviews": "Processed via AI: Highly recommended for General Medicine",
    "location": {
      "lat": 11.087543027317121,
      "lng": 78.61636854987735
    }
  },
  {
    "id": 69,
    "external_id": "11289",
    "name": "Kasturi Hospital, Tambaram, Chengalpet TN.",
    "city": "Chengalpet",
    "specialists": [
      "General Medicine"
    ],
    "insurance": [
      "MA"
    ],
    "fee": 674,
    "rating": 4.5,
    "reviews": "Processed via AI: Highly recommended for General Medicine",
    "location": {
      "lat": 11.112859638030733,
      "lng": 78.61679603623698
    }
  },
  {
    "id": 70,
    "external_id": "11250",
    "name": "LifeCell international Pvt Ltd, Chengalpet DC.",
    "city": "Chengalpet",
    "specialists": [
      "General Medicine"
    ],
    "insurance": [
      "MA"
    ],
    "fee": 436,
    "rating": 3.6,
    "reviews": "Processed via AI: Highly recommended for General Medicine",
    "location": {
      "lat": 11.102694107289208,
      "lng": 78.64689477090744
    }
  },
  {
    "id": 71,
    "external_id": "11290",
    "name": "Lions Hemodialysis Centre, Chengalpet TN.",
    "city": "Chengalpet",
    "specialists": [
      "Nephrologist"
    ],
    "insurance": [
      "MA"
    ],
    "fee": 639,
    "rating": 4.3,
    "reviews": "Processed via AI: Highly recommended for Nephrologist",
    "location": {
      "lat": 11.105610296602,
      "lng": 78.66540716635
    }
  },
  {
    "id": 72,
    "external_id": "11269",
    "name": "Melmaruvathur Adhiparsakthi Inst, Chengalpet TN.",
    "city": "Chengalpet",
    "specialists": [
      "General Medicine"
    ],
    "insurance": [
      "MA"
    ],
    "fee": 344,
    "rating": 3.5,
    "reviews": "Processed via AI: Highly recommended for General Medicine",
    "location": {
      "lat": 11.144280783084946,
      "lng": 78.68389755299415
    }
  },
  {
    "id": 73,
    "external_id": "11279",
    "name": "Melvin Jones Lions Dialysis, Chengalpet TN.",
    "city": "Chengalpet",
    "specialists": [
      "Nephrologist"
    ],
    "insurance": [
      "MA"
    ],
    "fee": 640,
    "rating": 4.1,
    "reviews": "Processed via AI: Highly recommended for Nephrologist",
    "location": {
      "lat": 11.154225650808906,
      "lng": 78.63068908360033
    }
  },
  {
    "id": 74,
    "external_id": "11247",
    "name": "Mothers Special School, ID,Autism, Chengalpet, TN. ",
    "city": "Chengalpet",
    "specialists": [
      "General Medicine"
    ],
    "insurance": [
      "MA"
    ],
    "fee": 520,
    "rating": 4.2,
    "reviews": "Processed via AI: Highly recommended for General Medicine",
    "location": {
      "lat": 11.140494205514768,
      "lng": 78.65253797412733
    }
  },
  {
    "id": 75,
    "external_id": "11286",
    "name": "One Health hospital, Chengalpet TN.",
    "city": "Chengalpet",
    "specialists": [
      "General Medicine"
    ],
    "insurance": [
      "MA"
    ],
    "fee": 426,
    "rating": 3.9,
    "reviews": "Processed via AI: Highly recommended for General Medicine",
    "location": {
      "lat": 11.133149866062638,
      "lng": 78.62761991905879
    }
  },
  {
    "id": 76,
    "external_id": "11270",
    "name": "Parvathy Ortho Hospital, Chengalpet TN.",
    "city": "Chengalpet",
    "specialists": [
      "Orthopedic Surgeon"
    ],
    "insurance": [
      "MA"
    ],
    "fee": 433,
    "rating": 4.7,
    "reviews": "Processed via AI: Highly recommended for Orthopedic Surgeon",
    "location": {
      "lat": 11.139758532135367,
      "lng": 78.65311592263038
    }
  },
  {
    "id": 77,
    "external_id": "11295",
    "name": "RKP Hospital Pvt Ltd., Chengalpet, TN.",
    "city": "Chengalpet",
    "specialists": [
      "General Medicine"
    ],
    "insurance": [
      "MA"
    ],
    "fee": 328,
    "rating": 3.6,
    "reviews": "Processed via AI: Highly recommended for General Medicine",
    "location": {
      "lat": 11.150616251520416,
      "lng": 78.68110074724582
    }
  },
  {
    "id": 78,
    "external_id": "11298",
    "name": "Rotary club Maraimalainagar, Chengalpattu, TN.",
    "city": "Chengalpet",
    "specialists": [
      "General Medicine"
    ],
    "insurance": [
      "MA"
    ],
    "fee": 501,
    "rating": 4.3,
    "reviews": "Processed via AI: Highly recommended for General Medicine",
    "location": {
      "lat": 11.174888165529769,
      "lng": 78.62522067668782
    }
  },
  {
    "id": 79,
    "external_id": "11282",
    "name": "Sai Fertility Centre and Hospital,Chengalpet TN.",
    "city": "Chengalpet",
    "specialists": [
      "ENT Specialist"
    ],
    "insurance": [
      "MA"
    ],
    "fee": 487,
    "rating": 3.7,
    "reviews": "Processed via AI: Highly recommended for ENT Specialist",
    "location": {
      "lat": 11.089298638876585,
      "lng": 78.62189641827806
    }
  },
  {
    "id": 80,
    "external_id": "11257",
    "name": "Sankara Eye Hospital, Chengalpet TN.",
    "city": "Chengalpet",
    "specialists": [
      "Ophthalmologist"
    ],
    "insurance": [
      "MA"
    ],
    "fee": 312,
    "rating": 4.6,
    "reviews": "Processed via AI: Highly recommended for Ophthalmologist",
    "location": {
      "lat": 11.139232929239808,
      "lng": 78.63225179851501
    }
  },
  {
    "id": 81,
    "external_id": "11275",
    "name": "Shadithya Health Care, Chengalpet TN.",
    "city": "Chengalpet",
    "specialists": [
      "General Medicine"
    ],
    "insurance": [
      "MA"
    ],
    "fee": 421,
    "rating": 3.8,
    "reviews": "Processed via AI: Highly recommended for General Medicine",
    "location": {
      "lat": 11.11142167684109,
      "lng": 78.66362492361175
    }
  },
  {
    "id": 82,
    "external_id": "11261",
    "name": "Shri Sathya Sai Medical College, Chengalpet TN.",
    "city": "Chengalpet",
    "specialists": [
      "General Medicine"
    ],
    "insurance": [
      "MA"
    ],
    "fee": 673,
    "rating": 4.1,
    "reviews": "Processed via AI: Highly recommended for General Medicine",
    "location": {
      "lat": 11.172749337169039,
      "lng": 78.62716379102413
    }
  },
  {
    "id": 83,
    "external_id": "11252",
    "name": "Shrimpex Biotech Services Pvt Ltd, Chengalpet, DC.",
    "city": "Chengalpet",
    "specialists": [
      "General Medicine"
    ],
    "insurance": [
      "MA"
    ],
    "fee": 743,
    "rating": 4.2,
    "reviews": "Processed via AI: Highly recommended for General Medicine",
    "location": {
      "lat": 11.150733640213437,
      "lng": 78.66597134149913
    }
  },
  {
    "id": 84,
    "external_id": "11262",
    "name": "Sree Renga Nursing Home, Chengalpet TN.",
    "city": "Chengalpet",
    "specialists": [
      "General Medicine"
    ],
    "insurance": [
      "MA"
    ],
    "fee": 466,
    "rating": 4,
    "reviews": "Processed via AI: Highly recommended for General Medicine",
    "location": {
      "lat": 11.161406600993667,
      "lng": 78.62555922857538
    }
  },
  {
    "id": 85,
    "external_id": "11263",
    "name": "Sri Balaji Medical Coll and Hosp, Chengalpet TN.",
    "city": "Chengalpet",
    "specialists": [
      "General Medicine"
    ],
    "insurance": [
      "MA"
    ],
    "fee": 732,
    "rating": 4.7,
    "reviews": "Processed via AI: Highly recommended for General Medicine",
    "location": {
      "lat": 11.168228181616799,
      "lng": 78.6183650327129
    }
  },
  {
    "id": 86,
    "external_id": "11272",
    "name": "Sri Chakara Multi Hospital, Chengalpet TN.",
    "city": "Chengalpet",
    "specialists": [
      "General Physician",
      "Cardiologist",
      "Orthopedic Surgeon"
    ],
    "insurance": [
      "MA"
    ],
    "fee": 667,
    "rating": 4.3,
    "reviews": "Processed via AI: Highly recommended for General Physician",
    "location": {
      "lat": 11.09056104415014,
      "lng": 78.62974494483491
    }
  },
  {
    "id": 87,
    "external_id": "11297",
    "name": "Sri Kauvery Medical Care Ltd, Chengalpattu, TN.",
    "city": "Chengalpet",
    "specialists": [
      "General Medicine"
    ],
    "insurance": [
      "MA"
    ],
    "fee": 339,
    "rating": 4.9,
    "reviews": "Processed via AI: Highly recommended for General Medicine",
    "location": {
      "lat": 11.08550753501603,
      "lng": 78.69400500324538
    }
  },
  {
    "id": 88,
    "external_id": "11294",
    "name": "Sringeri Sharada Equitas Hospital, Chengalpet, TN.",
    "city": "Chengalpet",
    "specialists": [
      "General Medicine"
    ],
    "insurance": [
      "MA"
    ],
    "fee": 780,
    "rating": 3.9,
    "reviews": "Processed via AI: Highly recommended for General Medicine",
    "location": {
      "lat": 11.110942798200497,
      "lng": 78.6485105845833
    }
  },
  {
    "id": 89,
    "external_id": "11264",
    "name": "SRM Medical College Hospital, Chengalpet TN.",
    "city": "Chengalpet",
    "specialists": [
      "General Medicine"
    ],
    "insurance": [
      "MA"
    ],
    "fee": 423,
    "rating": 4.8,
    "reviews": "Processed via AI: Highly recommended for General Medicine",
    "location": {
      "lat": 11.134034883177558,
      "lng": 78.61657738277168
    }
  },
  {
    "id": 90,
    "external_id": "11273",
    "name": "St. Thomas Hospital, Chengalpet TN.",
    "city": "Chengalpet",
    "specialists": [
      "General Medicine"
    ],
    "insurance": [
      "MA"
    ],
    "fee": 594,
    "rating": 4.6,
    "reviews": "Processed via AI: Highly recommended for General Medicine",
    "location": {
      "lat": 11.103623728725385,
      "lng": 78.69315387265208
    }
  },
  {
    "id": 91,
    "external_id": "11258",
    "name": "Sugam Hospital, Chengalpet TN.",
    "city": "Chengalpet",
    "specialists": [
      "General Medicine"
    ],
    "insurance": [
      "MA"
    ],
    "fee": 717,
    "rating": 4.3,
    "reviews": "Processed via AI: Highly recommended for General Medicine",
    "location": {
      "lat": 11.137083000771753,
      "lng": 78.61827996048528
    }
  },
  {
    "id": 92,
    "external_id": "11265",
    "name": "Tagore Medical Coll And Hosp, Chengalpet TN.",
    "city": "Chengalpet",
    "specialists": [
      "General Medicine"
    ],
    "insurance": [
      "MA"
    ],
    "fee": 518,
    "rating": 3.7,
    "reviews": "Processed via AI: Highly recommended for General Medicine",
    "location": {
      "lat": 11.11043234821165,
      "lng": 78.68721331445416
    }
  },
  {
    "id": 93,
    "external_id": "11288",
    "name": "Tagore Specialty Hospital, Chengalpet TN.",
    "city": "Chengalpet",
    "specialists": [
      "General Medicine"
    ],
    "insurance": [
      "MA"
    ],
    "fee": 702,
    "rating": 3.5,
    "reviews": "Processed via AI: Highly recommended for General Medicine",
    "location": {
      "lat": 11.090479149617035,
      "lng": 78.67148394084461
    }
  },
  {
    "id": 94,
    "external_id": "11285",
    "name": "Unittas Multi Speciality Hospital,chenglapattu TN.",
    "city": "Chengalpet",
    "specialists": [
      "General Physician",
      "Cardiologist",
      "Orthopedic Surgeon"
    ],
    "insurance": [
      "MA"
    ],
    "fee": 736,
    "rating": 4,
    "reviews": "Processed via AI: Highly recommended for General Physician",
    "location": {
      "lat": 11.088793320700393,
      "lng": 78.67424029895038
    }
  },
  {
    "id": 95,
    "external_id": "11299",
    "name": "Vasan Eye Care Hospital, Chengalpattu, TN.",
    "city": "Chengalpet",
    "specialists": [
      "Ophthalmologist"
    ],
    "insurance": [
      "MA"
    ],
    "fee": 375,
    "rating": 4.5,
    "reviews": "Processed via AI: Highly recommended for Ophthalmologist",
    "location": {
      "lat": 11.148688709586342,
      "lng": 78.63684833792665
    }
  },
  {
    "id": 96,
    "external_id": "11362",
    "name": "Aarthi Scans kilpauk, Chennai DC.",
    "city": "Chennai",
    "specialists": [
      "Radiologist"
    ],
    "insurance": [
      "MA"
    ],
    "fee": 338,
    "rating": 4.1,
    "reviews": "Processed via AI: Highly recommended for Radiologist",
    "location": {
      "lat": 13.102257800690941,
      "lng": 80.30963561356434
    }
  },
  {
    "id": 97,
    "external_id": "11360",
    "name": "Aarthi Scans, Alwarpet, Chennai DC.",
    "city": "Chennai",
    "specialists": [
      "Radiologist"
    ],
    "insurance": [
      "MA"
    ],
    "fee": 714,
    "rating": 4.5,
    "reviews": "Processed via AI: Highly recommended for Radiologist",
    "location": {
      "lat": 13.087695667537337,
      "lng": 80.29789098485213
    }
  },
  {
    "id": 98,
    "external_id": "11377",
    "name": "Aarthi Scans, Vadapalani,Chennai DC.",
    "city": "Chennai",
    "specialists": [
      "Radiologist"
    ],
    "insurance": [
      "MA"
    ],
    "fee": 526,
    "rating": 4.7,
    "reviews": "Processed via AI: Highly recommended for Radiologist",
    "location": {
      "lat": 13.03965887094971,
      "lng": 80.29977801262167
    }
  },
  {
    "id": 99,
    "external_id": "11363",
    "name": "Aarthi Scans,Tondiarpet Chennai DC.",
    "city": "Chennai",
    "specialists": [
      "Radiologist"
    ],
    "insurance": [
      "MA"
    ],
    "fee": 529,
    "rating": 4.5,
    "reviews": "Processed via AI: Highly recommended for Radiologist",
    "location": {
      "lat": 13.065607365856161,
      "lng": 80.22275792906015
    }
  },
  {
    "id": 100,
    "external_id": "11461",
    "name": "Adambakkam Sudar Hospital, Chennai TN.",
    "city": "Chennai",
    "specialists": [
      "General Medicine"
    ],
    "insurance": [
      "MA"
    ],
    "fee": 566,
    "rating": 4.2,
    "reviews": "Processed via AI: Highly recommended for General Medicine",
    "location": {
      "lat": 13.128283178428589,
      "lng": 80.27221595847692
    }
  },
  {
    "id": 101,
    "external_id": "11366",
    "name": "Advanced Nuclear Research,Chennai DC",
    "city": "Chennai",
    "specialists": [
      "ENT Specialist"
    ],
    "insurance": [
      "MA"
    ],
    "fee": 305,
    "rating": 4.9,
    "reviews": "Processed via AI: Highly recommended for ENT Specialist",
    "location": {
      "lat": 13.076541249017454,
      "lng": 80.28626812128081
    }
  },
  {
    "id": 102,
    "external_id": "11436",
    "name": "Adyar PM Hospital,Adyar,Chennai TN.",
    "city": "Chennai",
    "specialists": [
      "General Medicine"
    ],
    "insurance": [
      "MA"
    ],
    "fee": 394,
    "rating": 3.5,
    "reviews": "Processed via AI: Highly recommended for General Medicine",
    "location": {
      "lat": 13.130346583135541,
      "lng": 80.2311029900208
    }
  },
  {
    "id": 103,
    "external_id": "11444",
    "name": "Amma Hospital, Chennai TN",
    "city": "Chennai",
    "specialists": [
      "General Medicine"
    ],
    "insurance": [
      "MA"
    ],
    "fee": 664,
    "rating": 4.1,
    "reviews": "Processed via AI: Highly recommended for General Medicine",
    "location": {
      "lat": 13.120227499511028,
      "lng": 80.23229185163078
    }
  },
  {
    "id": 104,
    "external_id": "11454",
    "name": "AN-NOOR Eye hospital,Chennai TN.",
    "city": "Chennai",
    "specialists": [
      "Ophthalmologist"
    ],
    "insurance": [
      "MA"
    ],
    "fee": 439,
    "rating": 5,
    "reviews": "Processed via AI: Highly recommended for Ophthalmologist",
    "location": {
      "lat": 13.098148563603798,
      "lng": 80.23458022788608
    }
  },
  {
    "id": 105,
    "external_id": "11480",
    "name": "Anchibai Hemraj Katariya Dialysis, Chennai TN. ",
    "city": "Chennai",
    "specialists": [
      "Nephrologist"
    ],
    "insurance": [
      "MA"
    ],
    "fee": 798,
    "rating": 4.1,
    "reviews": "Processed via AI: Highly recommended for Nephrologist",
    "location": {
      "lat": 13.12849855147604,
      "lng": 80.24780665798521
    }
  },
  {
    "id": 106,
    "external_id": "11373",
    "name": "Anderson Diagnostic Services,Nungamb , Chennai DC.",
    "city": "Chennai",
    "specialists": [
      "General Medicine"
    ],
    "insurance": [
      "MA"
    ],
    "fee": 646,
    "rating": 4.9,
    "reviews": "Processed via AI: Highly recommended for General Medicine",
    "location": {
      "lat": 13.05077568893753,
      "lng": 80.23305683339724
    }
  },
  {
    "id": 107,
    "external_id": "11376",
    "name": "Anderson Diagnostic sevices, Purasai, Chennai DC.",
    "city": "Chennai",
    "specialists": [
      "General Medicine"
    ],
    "insurance": [
      "MA"
    ],
    "fee": 509,
    "rating": 4.7,
    "reviews": "Processed via AI: Highly recommended for General Medicine",
    "location": {
      "lat": 13.116205983201594,
      "lng": 80.30006990172335
    }
  },
  {
    "id": 108,
    "external_id": "11442",
    "name": "Annai multi speciality,Virugambakkam,Chennai TN",
    "city": "Chennai",
    "specialists": [
      "General Physician",
      "Cardiologist",
      "Orthopedic Surgeon"
    ],
    "insurance": [
      "MA"
    ],
    "fee": 570,
    "rating": 3.7,
    "reviews": "Processed via AI: Highly recommended for General Physician",
    "location": {
      "lat": 13.126747324175502,
      "lng": 80.22271312538678
    }
  },
  {
    "id": 109,
    "external_id": "11390",
    "name": "Apollo Childrens Hospital,Chennai TN.",
    "city": "Chennai",
    "specialists": [
      "Gynecologist",
      "Pediatrician"
    ],
    "insurance": [
      "MA"
    ],
    "fee": 792,
    "rating": 3.6,
    "reviews": "Processed via AI: Highly recommended for Gynecologist",
    "location": {
      "lat": 13.116031077910216,
      "lng": 80.27013421497246
    }
  },
  {
    "id": 110,
    "external_id": "11392",
    "name": "Apollo Greams,Chennai TN.",
    "city": "Chennai",
    "specialists": [
      "General Medicine"
    ],
    "insurance": [
      "MA"
    ],
    "fee": 772,
    "rating": 4.5,
    "reviews": "Processed via AI: Highly recommended for General Medicine",
    "location": {
      "lat": 13.043810543452103,
      "lng": 80.27194484974041
    }
  },
  {
    "id": 111,
    "external_id": "11394",
    "name": "APOLLO SPECIALTY HOSPITAL, Chennai TN.",
    "city": "Chennai",
    "specialists": [
      "General Medicine"
    ],
    "insurance": [
      "MA"
    ],
    "fee": 574,
    "rating": 4.5,
    "reviews": "Processed via AI: Highly recommended for General Medicine",
    "location": {
      "lat": 13.042169226625385,
      "lng": 80.26548903776552
    }
  },
  {
    "id": 112,
    "external_id": "11439",
    "name": "Apollo Spectra Hospital, R.A Puram, Chennai TN.",
    "city": "Chennai",
    "specialists": [
      "General Medicine"
    ],
    "insurance": [
      "MA"
    ],
    "fee": 529,
    "rating": 4,
    "reviews": "Processed via AI: Highly recommended for General Medicine",
    "location": {
      "lat": 13.102381174928441,
      "lng": 80.24180235873405
    }
  },
  {
    "id": 113,
    "external_id": "11416",
    "name": "Appasamy Hospitals,Chennai TN.",
    "city": "Chennai",
    "specialists": [
      "General Medicine"
    ],
    "insurance": [
      "MA"
    ],
    "fee": 597,
    "rating": 3.8,
    "reviews": "Processed via AI: Highly recommended for General Medicine",
    "location": {
      "lat": 13.131603523014897,
      "lng": 80.30131893451697
    }
  },
  {
    "id": 114,
    "external_id": "11401",
    "name": "TN.",
    "city": "Chennai",
    "specialists": [
      "General Medicine"
    ],
    "insurance": [
      "MA"
    ],
    "fee": 552,
    "rating": 4.6,
    "reviews": "Processed via AI: Highly recommended for General Medicine",
    "location": {
      "lat": 13.061728642100976,
      "lng": 80.22502557376129
    }
  },
  {
    "id": 115,
    "external_id": "11378",
    "name": "Balaji Medical Centre, Chennai DC.",
    "city": "Chennai",
    "specialists": [
      "ENT Specialist"
    ],
    "insurance": [
      "MA"
    ],
    "fee": 682,
    "rating": 4.9,
    "reviews": "Processed via AI: Highly recommended for ENT Specialist",
    "location": {
      "lat": 13.09123180683949,
      "lng": 80.29454954583215
    }
  },
  {
    "id": 116,
    "external_id": "11372",
    "name": "Bharat Scans Royapettah, Chennai DC.",
    "city": "Chennai",
    "specialists": [
      "Radiologist"
    ],
    "insurance": [
      "MA"
    ],
    "fee": 742,
    "rating": 4.6,
    "reviews": "Processed via AI: Highly recommended for Radiologist",
    "location": {
      "lat": 13.129005546201954,
      "lng": 80.23256765568296
    }
  },
  {
    "id": 117,
    "external_id": "11405",
    "name": "Bharathirajaa Speciality Hospital, Chennai TN.",
    "city": "Chennai",
    "specialists": [
      "General Medicine"
    ],
    "insurance": [
      "MA"
    ],
    "fee": 633,
    "rating": 3.7,
    "reviews": "Processed via AI: Highly recommended for General Medicine",
    "location": {
      "lat": 13.07715369462835,
      "lng": 80.22817428977604
    }
  },
  {
    "id": 118,
    "external_id": "11407",
    "name": "Billroth Hospitals Shenoy Nagar, Chennai TN.",
    "city": "Chennai",
    "specialists": [
      "General Medicine"
    ],
    "insurance": [
      "MA"
    ],
    "fee": 659,
    "rating": 4.4,
    "reviews": "Processed via AI: Highly recommended for General Medicine",
    "location": {
      "lat": 13.102940715114112,
      "lng": 80.31759388785396
    }
  },
  {
    "id": 119,
    "external_id": "11412",
    "name": "Billroth,Chennai TN.",
    "city": "Chennai",
    "specialists": [
      "General Medicine"
    ],
    "insurance": [
      "MA"
    ],
    "fee": 515,
    "rating": 4.1,
    "reviews": "Processed via AI: Highly recommended for General Medicine",
    "location": {
      "lat": 13.079510082730536,
      "lng": 80.29413908937482
    }
  },
  {
    "id": 120,
    "external_id": "11398",
    "name": "Bloom Health Care, Chennai TN.",
    "city": "Chennai",
    "specialists": [
      "General Medicine"
    ],
    "insurance": [
      "MA"
    ],
    "fee": 562,
    "rating": 3.8,
    "reviews": "Processed via AI: Highly recommended for General Medicine",
    "location": {
      "lat": 13.052887141990212,
      "lng": 80.23501519387646
    }
  },
  {
    "id": 121,
    "external_id": "11397",
    "name": "Cancer Institute Adyar,Chennai TN.",
    "city": "Chennai",
    "specialists": [
      "Oncologist"
    ],
    "insurance": [
      "MA"
    ],
    "fee": 393,
    "rating": 4.4,
    "reviews": "Processed via AI: Highly recommended for Oncologist",
    "location": {
      "lat": 13.09807310907002,
      "lng": 80.29646173884413
    }
  },
  {
    "id": 122,
    "external_id": "11306",
    "name": "CCH, Adyar, Chennai TN.",
    "city": "Chennai",
    "specialists": [
      "General Medicine"
    ],
    "insurance": [
      "MA"
    ],
    "fee": 692,
    "rating": 4.7,
    "reviews": "Processed via AI: Highly recommended for General Medicine",
    "location": {
      "lat": 13.131447947885023,
      "lng": 80.31030925988938
    }
  },
  {
    "id": 123,
    "external_id": "11303",
    "name": "CCH, Ayanavaram, Chennai TN.",
    "city": "Chennai",
    "specialists": [
      "General Medicine"
    ],
    "insurance": [
      "MA"
    ],
    "fee": 500,
    "rating": 3.8,
    "reviews": "Processed via AI: Highly recommended for General Medicine",
    "location": {
      "lat": 13.132477305000986,
      "lng": 80.28782368271742
    }
  },
  {
    "id": 124,
    "external_id": "11305",
    "name": "CCH, Kodambakkam, Chennai TN.",
    "city": "Chennai",
    "specialists": [
      "General Medicine"
    ],
    "insurance": [
      "MA"
    ],
    "fee": 336,
    "rating": 3.5,
    "reviews": "Processed via AI: Highly recommended for General Medicine",
    "location": {
      "lat": 13.09166683647369,
      "lng": 80.30723703295024
    }
  },
  {
    "id": 125,
    "external_id": "11311",
    "name": "CCH, Nungambakkam, Chennai TN.",
    "city": "Chennai",
    "specialists": [
      "General Medicine"
    ],
    "insurance": [
      "MA"
    ],
    "fee": 394,
    "rating": 4.7,
    "reviews": "Processed via AI: Highly recommended for General Medicine",
    "location": {
      "lat": 13.056776189503536,
      "lng": 80.3034575434761
    }
  },
  {
    "id": 126,
    "external_id": "11312",
    "name": "CCH, Perambur, Chennai TN.",
    "city": "Chennai",
    "specialists": [
      "General Medicine"
    ],
    "insurance": [
      "MA"
    ],
    "fee": 725,
    "rating": 4,
    "reviews": "Processed via AI: Highly recommended for General Medicine",
    "location": {
      "lat": 13.121760521188493,
      "lng": 80.252705803328
    }
  },
  {
    "id": 127,
    "external_id": "11307",
    "name": "CCH, Perumalpet, Chennai TN.",
    "city": "Chennai",
    "specialists": [
      "General Medicine"
    ],
    "insurance": [
      "MA"
    ],
    "fee": 532,
    "rating": 4.3,
    "reviews": "Processed via AI: Highly recommended for General Medicine",
    "location": {
      "lat": 13.07795936798321,
      "lng": 80.29016888708051
    }
  },
  {
    "id": 128,
    "external_id": "11301",
    "name": "CCH, Royapuram, Chennai TN.",
    "city": "Chennai",
    "specialists": [
      "General Medicine"
    ],
    "insurance": [
      "MA"
    ],
    "fee": 341,
    "rating": 4.1,
    "reviews": "Processed via AI: Highly recommended for General Medicine",
    "location": {
      "lat": 13.052724881086377,
      "lng": 80.2303972067487
    }
  },
  {
    "id": 129,
    "external_id": "11309",
    "name": "CCH, Saidapet, Chennai TN.",
    "city": "Chennai",
    "specialists": [
      "General Medicine"
    ],
    "insurance": [
      "MA"
    ],
    "fee": 591,
    "rating": 3.8,
    "reviews": "Processed via AI: Highly recommended for General Medicine",
    "location": {
      "lat": 13.040327790215947,
      "lng": 80.31146708066045
    }
  },
  {
    "id": 130,
    "external_id": "11308",
    "name": "CCH, Shenoynagar, Chennai TN.",
    "city": "Chennai",
    "specialists": [
      "General Medicine"
    ],
    "insurance": [
      "MA"
    ],
    "fee": 744,
    "rating": 3.6,
    "reviews": "Processed via AI: Highly recommended for General Medicine",
    "location": {
      "lat": 13.090676522552132,
      "lng": 80.32019529613244
    }
  },
  {
    "id": 131,
    "external_id": "11304",
    "name": "CCH, Teynampet, Chennai TN.",
    "city": "Chennai",
    "specialists": [
      "General Medicine"
    ],
    "insurance": [
      "MA"
    ],
    "fee": 306,
    "rating": 4.9,
    "reviews": "Processed via AI: Highly recommended for General Medicine",
    "location": {
      "lat": 13.107244492749688,
      "lng": 80.26553430204474
    }
  },
  {
    "id": 132,
    "external_id": "11302",
    "name": "CCH, TVK Nagar, Chennai TN.",
    "city": "Chennai",
    "specialists": [
      "General Medicine"
    ],
    "insurance": [
      "MA"
    ],
    "fee": 478,
    "rating": 3.5,
    "reviews": "Processed via AI: Highly recommended for General Medicine",
    "location": {
      "lat": 13.062253839508834,
      "lng": 80.30352087340593
    }
  },
  {
    "id": 133,
    "external_id": "11300",
    "name": "CCH,Tondiarpet, Chennai TN.",
    "city": "Chennai",
    "specialists": [
      "General Medicine"
    ],
    "insurance": [
      "MA"
    ],
    "fee": 427,
    "rating": 4.4,
    "reviews": "Processed via AI: Highly recommended for General Medicine",
    "location": {
      "lat": 13.069792256767146,
      "lng": 80.2317180051899
    }
  },
  {
    "id": 134,
    "external_id": "11471",
    "name": "Chennai  Health Foundation Hospital, Chennai, TN.",
    "city": "CHENNAI",
    "specialists": [
      "General Medicine"
    ],
    "insurance": [
      "MA"
    ],
    "fee": 515,
    "rating": 4.3,
    "reviews": "Processed via AI: Highly recommended for General Medicine",
    "location": {
      "lat": 11.117902177148837,
      "lng": 78.62722166457685
    }
  },
  {
    "id": 135,
    "external_id": "11462",
    "name": "Chennai Breast Centre, Chennai TN.",
    "city": "Chennai",
    "specialists": [
      "ENT Specialist"
    ],
    "insurance": [
      "MA"
    ],
    "fee": 588,
    "rating": 3.6,
    "reviews": "Processed via AI: Highly recommended for ENT Specialist",
    "location": {
      "lat": 13.085719325796044,
      "lng": 80.29401672545536
    }
  },
  {
    "id": 136,
    "external_id": "11429",
    "name": "Chennai National Hospital, Chennai TN.",
    "city": "Chennai",
    "specialists": [
      "General Medicine"
    ],
    "insurance": [
      "MA"
    ],
    "fee": 771,
    "rating": 4.2,
    "reviews": "Processed via AI: Highly recommended for General Medicine",
    "location": {
      "lat": 13.052443605915252,
      "lng": 80.22724278060086
    }
  },
  {
    "id": 137,
    "external_id": "11450",
    "name": "Chennai Orthopedic Centre, Chennai TN.",
    "city": "Chennai",
    "specialists": [
      "Orthopedic Surgeon"
    ],
    "insurance": [
      "MA"
    ],
    "fee": 419,
    "rating": 4.8,
    "reviews": "Processed via AI: Highly recommended for Orthopedic Surgeon",
    "location": {
      "lat": 13.086932537097347,
      "lng": 80.2837596558935
    }
  },
  {
    "id": 138,
    "external_id": "13090",
    "name": "Chennai",
    "city": "GOI",
    "specialists": [
      "General Medicine"
    ],
    "insurance": [
      "H_CPTH",
      "CMCHIS (Govt Scheme)",
      "PMJAY"
    ],
    "fee": 0,
    "rating": 3.9,
    "reviews": "Processed via AI: Highly recommended for General Medicine",
    "location": {
      "lat": 11.104672543622803,
      "lng": 78.6661109465547
    }
  },
  {
    "id": 139,
    "external_id": "11310",
    "name": "Communicable Disease Hos,Tondiarpet, Chennai TN.",
    "city": "Chennai",
    "specialists": [
      "General Medicine"
    ],
    "insurance": [
      "MA"
    ],
    "fee": 493,
    "rating": 4.2,
    "reviews": "Processed via AI: Highly recommended for General Medicine",
    "location": {
      "lat": 13.100436578275254,
      "lng": 80.28045879473898
    }
  },
  {
    "id": 140,
    "external_id": "11391",
    "name": "CSI KALYANI GENERAL HOSPITAL, Chennai TN.",
    "city": "Chennai",
    "specialists": [
      "General Physician",
      "Cardiologist",
      "Orthopedic Surgeon"
    ],
    "insurance": [
      "MA"
    ],
    "fee": 696,
    "rating": 4.2,
    "reviews": "Processed via AI: Highly recommended for General Physician",
    "location": {
      "lat": 13.091566733967223,
      "lng": 80.26776035355446
    }
  },
  {
    "id": 141,
    "external_id": "11319",
    "name": "DEIC ,Chennai TN.",
    "city": "Chennai",
    "specialists": [
      "General Medicine"
    ],
    "insurance": [
      "MA"
    ],
    "fee": 345,
    "rating": 4,
    "reviews": "Processed via AI: Highly recommended for General Medicine",
    "location": {
      "lat": 13.04141883239574,
      "lng": 80.26603152677379
    }
  },
  {
    "id": 142,
    "external_id": "11467",
    "name": "Devraj Manickchand Maternity Hospital, Chennai,TN.",
    "city": "CHENNAI",
    "specialists": [
      "Gynecologist",
      "Pediatrician"
    ],
    "insurance": [
      "MA"
    ],
    "fee": 581,
    "rating": 3.8,
    "reviews": "Processed via AI: Highly recommended for Gynecologist",
    "location": {
      "lat": 11.175960056977125,
      "lng": 78.68760760352025
    }
  },
  {
    "id": 143,
    "external_id": "11317",
    "name": "District Diff. Abled Welfare Off,North Chennai TN.",
    "city": "Chennai",
    "specialists": [
      "General Medicine"
    ],
    "insurance": [
      "MA"
    ],
    "fee": 607,
    "rating": 4,
    "reviews": "Processed via AI: Highly recommended for General Medicine",
    "location": {
      "lat": 13.055028276767088,
      "lng": 80.23590947416992
    }
  },
  {
    "id": 144,
    "external_id": "11315",
    "name": "District Diff. abled welfare office,Chennai TN.",
    "city": "Chennai",
    "specialists": [
      "General Medicine"
    ],
    "insurance": [
      "MA"
    ],
    "fee": 448,
    "rating": 4.6,
    "reviews": "Processed via AI: Highly recommended for General Medicine",
    "location": {
      "lat": 13.073710745440016,
      "lng": 80.23232320582504
    }
  },
  {
    "id": 145,
    "external_id": "11374",
    "name": "DOC Medical Services PVT LTD,Chennai DC.",
    "city": "Chennai",
    "specialists": [
      "General Medicine"
    ],
    "insurance": [
      "MA"
    ],
    "fee": 636,
    "rating": 3.8,
    "reviews": "Processed via AI: Highly recommended for General Medicine",
    "location": {
      "lat": 13.126083349337247,
      "lng": 80.22935148635568
    }
  },
  {
    "id": 146,
    "external_id": "11406",
    "name": "Dr Mehtas Hospitals Chetpet,Chennai TN.",
    "city": "Chennai",
    "specialists": [
      "General Medicine"
    ],
    "insurance": [
      "MA"
    ],
    "fee": 303,
    "rating": 4.8,
    "reviews": "Processed via AI: Highly recommended for General Medicine",
    "location": {
      "lat": 13.06652981784173,
      "lng": 80.25106570772479
    }
  },
  {
    "id": 147,
    "external_id": "11404",
    "name": "Dr Rai Memorial Cancer Institute,Chennai TN.",
    "city": "Chennai",
    "specialists": [
      "Oncologist"
    ],
    "insurance": [
      "MA"
    ],
    "fee": 312,
    "rating": 3.5,
    "reviews": "Processed via AI: Highly recommended for Oncologist",
    "location": {
      "lat": 13.081934946514147,
      "lng": 80.25805675771991
    }
  },
  {
    "id": 148,
    "external_id": "11411",
    "name": "Dr. Agarwals Eye Hospital,Chennai TN.",
    "city": "Chennai",
    "specialists": [
      "Ophthalmologist"
    ],
    "insurance": [
      "MA"
    ],
    "fee": 668,
    "rating": 4.6,
    "reviews": "Processed via AI: Highly recommended for Ophthalmologist",
    "location": {
      "lat": 13.121952399073745,
      "lng": 80.22593323903361
    }
  },
  {
    "id": 149,
    "external_id": "11418",
    "name": "Faith Multispecialty Hospital,Chennai TN.",
    "city": "Chennai",
    "specialists": [
      "General Physician",
      "Cardiologist",
      "Orthopedic Surgeon"
    ],
    "insurance": [
      "MA"
    ],
    "fee": 598,
    "rating": 3.9,
    "reviews": "Processed via AI: Highly recommended for General Physician",
    "location": {
      "lat": 13.0603570355621,
      "lng": 80.28255853993538
    }
  },
  {
    "id": 150,
    "external_id": "11456",
    "name": "FIRM Hospitals, Chennai TN.",
    "city": "Chennai",
    "specialists": [
      "General Medicine"
    ],
    "insurance": [
      "MA"
    ],
    "fee": 674,
    "rating": 4.1,
    "reviews": "Processed via AI: Highly recommended for General Medicine",
    "location": {
      "lat": 13.039826328386479,
      "lng": 80.30041518737292
    }
  },
  {
    "id": 151,
    "external_id": "11445",
    "name": "Fortis Health Care ltd,Vadapalani Chennai TN.",
    "city": "Chennai",
    "specialists": [
      "General Medicine"
    ],
    "insurance": [
      "MA"
    ],
    "fee": 439,
    "rating": 4.1,
    "reviews": "Processed via AI: Highly recommended for General Medicine",
    "location": {
      "lat": 13.061235481190732,
      "lng": 80.28613079243397
    }
  },
  {
    "id": 152,
    "external_id": "11446",
    "name": "Fortis Health Care ltd,Vadapalani Chennai TN.",
    "city": "Chennai",
    "specialists": [
      "General Medicine"
    ],
    "insurance": [
      "MA"
    ],
    "fee": 451,
    "rating": 4,
    "reviews": "Processed via AI: Highly recommended for General Medicine",
    "location": {
      "lat": 13.03354442113576,
      "lng": 80.26958405908157
    }
  },
  {
    "id": 153,
    "external_id": "11375",
    "name": "Gemini Scans Pvt Ltd,Vadapalani,Chennai DC.",
    "city": "Chennai",
    "specialists": [
      "Radiologist"
    ],
    "insurance": [
      "MA"
    ],
    "fee": 312,
    "rating": 4.6,
    "reviews": "Processed via AI: Highly recommended for Radiologist",
    "location": {
      "lat": 13.09944634949022,
      "lng": 80.30502516030153
    }
  },
  {
    "id": 154,
    "external_id": "11459",
    "name": "GKM Hospital, Purasaiwakam, Chennai TN.",
    "city": "Chennai",
    "specialists": [
      "General Medicine"
    ],
    "insurance": [
      "MA"
    ],
    "fee": 673,
    "rating": 3.8,
    "reviews": "Processed via AI: Highly recommended for General Medicine",
    "location": {
      "lat": 13.118619075011853,
      "lng": 80.2321309846252
    }
  },
  {
    "id": 155,
    "external_id": "11334",
    "name": "Government Dental College, Chennai TN.",
    "city": "Chennai",
    "specialists": [
      "Dentist"
    ],
    "insurance": [
      "MA",
      "CMCHIS (Govt Scheme)",
      "PMJAY"
    ],
    "fee": 0,
    "rating": 4.8,
    "reviews": "Processed via AI: Highly recommended for Dentist",
    "location": {
      "lat": 13.11755697903725,
      "lng": 80.26438705181164
    }
  },
  {
    "id": 156,
    "external_id": "11338",
    "name": "Government Peripheral Hosp,KK Nagar,Chennai TN.",
    "city": "Chennai",
    "specialists": [
      "ENT Specialist"
    ],
    "insurance": [
      "MA",
      "CMCHIS (Govt Scheme)",
      "PMJAY"
    ],
    "fee": 0,
    "rating": 3.7,
    "reviews": "Processed via AI: Highly recommended for ENT Specialist",
    "location": {
      "lat": 13.042351573006286,
      "lng": 80.22599689501499
    }
  },
  {
    "id": 157,
    "external_id": "11337",
    "name": "Government Peripheral Hosp,Periyar Ngr,Chennai TN.",
    "city": "Chennai",
    "specialists": [
      "ENT Specialist"
    ],
    "insurance": [
      "MA",
      "CMCHIS (Govt Scheme)",
      "PMJAY"
    ],
    "fee": 0,
    "rating": 4.6,
    "reviews": "Processed via AI: Highly recommended for ENT Specialist",
    "location": {
      "lat": 13.085396401930138,
      "lng": 80.29522807602478
    }
  },
  {
    "id": 158,
    "external_id": "11328",
    "name": "Government Peripheral Hosp,Tondiarpet,Chennai TN.",
    "city": "Chennai",
    "specialists": [
      "ENT Specialist"
    ],
    "insurance": [
      "MA",
      "CMCHIS (Govt Scheme)",
      "PMJAY"
    ],
    "fee": 0,
    "rating": 4.7,
    "reviews": "Processed via AI: Highly recommended for ENT Specialist",
    "location": {
      "lat": 13.103906197593243,
      "lng": 80.30495306830755
    }
  },
  {
    "id": 159,
    "external_id": "11351",
    "name": "Govt Alandur UPHC, Chennai TN.",
    "city": "Chennai",
    "specialists": [
      "General Medicine"
    ],
    "insurance": [
      "MA",
      "CMCHIS (Govt Scheme)",
      "PMJAY"
    ],
    "fee": 0,
    "rating": 4.1,
    "reviews": "Processed via AI: Highly recommended for General Medicine",
    "location": {
      "lat": 13.108726581059733,
      "lng": 80.25673576829563
    }
  },
  {
    "id": 160,
    "external_id": "11347",
    "name": "Govt Ayanavaram UCHC, Chennai TN.",
    "city": "Chennai",
    "specialists": [
      "General Medicine"
    ],
    "insurance": [
      "MA",
      "CMCHIS (Govt Scheme)",
      "PMJAY"
    ],
    "fee": 0,
    "rating": 4.5,
    "reviews": "Processed via AI: Highly recommended for General Medicine",
    "location": {
      "lat": 13.102816597488806,
      "lng": 80.23065827636898
    }
  },
  {
    "id": 161,
    "external_id": "11343",
    "name": "Govt CHC Adayar,  Chennai TN.",
    "city": "Chennai",
    "specialists": [
      "General Medicine"
    ],
    "insurance": [
      "MA",
      "CMCHIS (Govt Scheme)",
      "PMJAY"
    ],
    "fee": 0,
    "rating": 4.4,
    "reviews": "Processed via AI: Highly recommended for General Medicine",
    "location": {
      "lat": 13.051440279691482,
      "lng": 80.3154403484027
    }
  },
  {
    "id": 162,
    "external_id": "11344",
    "name": "Govt CHC RK Nagar,  Chennai TN.",
    "city": "Chennai",
    "specialists": [
      "General Medicine"
    ],
    "insurance": [
      "MA",
      "CMCHIS (Govt Scheme)",
      "PMJAY"
    ],
    "fee": 0,
    "rating": 4.8,
    "reviews": "Processed via AI: Highly recommended for General Medicine",
    "location": {
      "lat": 13.04053285491667,
      "lng": 80.23162440597712
    }
  },
  {
    "id": 163,
    "external_id": "11341",
    "name": "Govt Hospital,Ayanavaram ESI, Chennai TN. ",
    "city": "Chennai",
    "specialists": [
      "General Medicine"
    ],
    "insurance": [
      "MA",
      "CMCHIS (Govt Scheme)",
      "PMJAY"
    ],
    "fee": 0,
    "rating": 4.1,
    "reviews": "Processed via AI: Highly recommended for General Medicine",
    "location": {
      "lat": 13.080103129833283,
      "lng": 80.27181098461205
    }
  },
  {
    "id": 164,
    "external_id": "11353",
    "name": "Govt INJAMBAKKAM UCHC, Chennai TN.",
    "city": "Chennai",
    "specialists": [
      "General Medicine"
    ],
    "insurance": [
      "MA",
      "CMCHIS (Govt Scheme)",
      "PMJAY"
    ],
    "fee": 0,
    "rating": 4,
    "reviews": "Processed via AI: Highly recommended for General Medicine",
    "location": {
      "lat": 13.065161341523227,
      "lng": 80.30391467521567
    }
  },
  {
    "id": 165,
    "external_id": "11339",
    "name": "Govt Institute of mental health, Chennai TN.",
    "city": "Chennai",
    "specialists": [
      "ENT Specialist"
    ],
    "insurance": [
      "MA",
      "CMCHIS (Govt Scheme)",
      "PMJAY"
    ],
    "fee": 0,
    "rating": 4.2,
    "reviews": "Processed via AI: Highly recommended for ENT Specialist",
    "location": {
      "lat": 13.080016407746331,
      "lng": 80.25737764066753
    }
  },
  {
    "id": 166,
    "external_id": "11333",
    "name": "Govt Kalaignar Centenary Spr Spl Hosp, Chennai TN.",
    "city": "Chennai",
    "specialists": [
      "ENT Specialist"
    ],
    "insurance": [
      "MA",
      "CMCHIS (Govt Scheme)",
      "PMJAY"
    ],
    "fee": 0,
    "rating": 3.8,
    "reviews": "Processed via AI: Highly recommended for ENT Specialist",
    "location": {
      "lat": 13.06063717858974,
      "lng": 80.28853784132612
    }
  },
  {
    "id": 167,
    "external_id": "11348",
    "name": "Govt Manjambakkam UCHC, Chennai TN.",
    "city": "Chennai",
    "specialists": [
      "General Medicine"
    ],
    "insurance": [
      "MA",
      "CMCHIS (Govt Scheme)",
      "PMJAY"
    ],
    "fee": 0,
    "rating": 4.9,
    "reviews": "Processed via AI: Highly recommended for General Medicine",
    "location": {
      "lat": 13.074701902399406,
      "lng": 80.30575021957401
    }
  },
  {
    "id": 168,
    "external_id": "11358",
    "name": "Govt Mirsahibpet UCHC, Chennai TN.",
    "city": "Chennai",
    "specialists": [
      "General Medicine"
    ],
    "insurance": [
      "MA",
      "CMCHIS (Govt Scheme)",
      "PMJAY"
    ],
    "fee": 0,
    "rating": 4.9,
    "reviews": "Processed via AI: Highly recommended for General Medicine",
    "location": {
      "lat": 13.07415881237202,
      "lng": 80.26608705264314
    }
  },
  {
    "id": 169,
    "external_id": "11331",
    "name": "Govt Opthomology Hospital,Chennai TN.",
    "city": "Chennai",
    "specialists": [
      "General Medicine"
    ],
    "insurance": [
      "MA",
      "CMCHIS (Govt Scheme)",
      "PMJAY"
    ],
    "fee": 0,
    "rating": 4.8,
    "reviews": "Processed via AI: Highly recommended for General Medicine",
    "location": {
      "lat": 13.131885317452317,
      "lng": 80.24064194084488
    }
  },
  {
    "id": 170,
    "external_id": "11355",
    "name": "Govt PADI UCHC, Chennai TN.",
    "city": "Chennai",
    "specialists": [
      "General Medicine"
    ],
    "insurance": [
      "MA",
      "CMCHIS (Govt Scheme)",
      "PMJAY"
    ],
    "fee": 0,
    "rating": 4.9,
    "reviews": "Processed via AI: Highly recommended for General Medicine",
    "location": {
      "lat": 13.0841193344433,
      "lng": 80.26711560478105
    }
  },
  {
    "id": 171,
    "external_id": "11340",
    "name": "Govt Peripheral Hospital, Saidapet,Chennai TN.",
    "city": "Chennai",
    "specialists": [
      "General Medicine"
    ],
    "insurance": [
      "MA",
      "CMCHIS (Govt Scheme)",
      "PMJAY"
    ],
    "fee": 0,
    "rating": 4.8,
    "reviews": "Processed via AI: Highly recommended for General Medicine",
    "location": {
      "lat": 13.11049355347877,
      "lng": 80.2951847838002
    }
  },
  {
    "id": 172,
    "external_id": "11350",
    "name": "Govt Perungudi UCHC, Chennai TN.",
    "city": "Chennai",
    "specialists": [
      "General Medicine"
    ],
    "insurance": [
      "MA",
      "CMCHIS (Govt Scheme)",
      "PMJAY"
    ],
    "fee": 0,
    "rating": 3.6,
    "reviews": "Processed via AI: Highly recommended for General Medicine",
    "location": {
      "lat": 13.090054638385697,
      "lng": 80.22297876248699
    }
  },
  {
    "id": 173,
    "external_id": "11354",
    "name": "Govt PORUR UCHC, Chennai TN.",
    "city": "Chennai",
    "specialists": [
      "General Medicine"
    ],
    "insurance": [
      "MA",
      "CMCHIS (Govt Scheme)",
      "PMJAY"
    ],
    "fee": 0,
    "rating": 4.2,
    "reviews": "Processed via AI: Highly recommended for General Medicine",
    "location": {
      "lat": 13.051340330432025,
      "lng": 80.2229176176102
    }
  },
  {
    "id": 174,
    "external_id": "11345",
    "name": "Govt Pulianthope CHC,Chennai TN.",
    "city": "Chennai",
    "specialists": [
      "General Medicine"
    ],
    "insurance": [
      "MA",
      "CMCHIS (Govt Scheme)",
      "PMJAY"
    ],
    "fee": 0,
    "rating": 4.1,
    "reviews": "Processed via AI: Highly recommended for General Medicine",
    "location": {
      "lat": 13.083211827024343,
      "lng": 80.2818524273711
    }
  },
  {
    "id": 175,
    "external_id": "11349",
    "name": "Govt Puzhal CHC, Chennai TN.",
    "city": "Chennai",
    "specialists": [
      "General Medicine"
    ],
    "insurance": [
      "MA",
      "CMCHIS (Govt Scheme)",
      "PMJAY"
    ],
    "fee": 0,
    "rating": 3.7,
    "reviews": "Processed via AI: Highly recommended for General Medicine",
    "location": {
      "lat": 13.057145376507187,
      "lng": 80.27307446826498
    }
  },
  {
    "id": 176,
    "external_id": "11357",
    "name": "Govt Sanjeevarayanpet UCHC, Chennai TN.",
    "city": "Chennai",
    "specialists": [
      "General Medicine"
    ],
    "insurance": [
      "MA",
      "CMCHIS (Govt Scheme)",
      "PMJAY"
    ],
    "fee": 0,
    "rating": 4.5,
    "reviews": "Processed via AI: Highly recommended for General Medicine",
    "location": {
      "lat": 13.119862822277918,
      "lng": 80.28719260928992
    }
  },
  {
    "id": 177,
    "external_id": "11356",
    "name": "Govt Thiruvottiyur UCHC, Chennai TN.",
    "city": "Chennai",
    "specialists": [
      "General Medicine"
    ],
    "insurance": [
      "MA",
      "CMCHIS (Govt Scheme)",
      "PMJAY"
    ],
    "fee": 0,
    "rating": 4.2,
    "reviews": "Processed via AI: Highly recommended for General Medicine",
    "location": {
      "lat": 13.068100775086016,
      "lng": 80.29712911866656
    }
  },
  {
    "id": 178,
    "external_id": "11352",
    "name": "Govt VADAPALANI UCHC, Chennai TN.",
    "city": "Chennai",
    "specialists": [
      "General Medicine"
    ],
    "insurance": [
      "MA",
      "CMCHIS (Govt Scheme)",
      "PMJAY"
    ],
    "fee": 0,
    "rating": 4.4,
    "reviews": "Processed via AI: Highly recommended for General Medicine",
    "location": {
      "lat": 13.045290987699477,
      "lng": 80.2247597595383
    }
  },
  {
    "id": 179,
    "external_id": "11314",
    "name": "Govt Vyasarpadi UPHC TANKER Foundation,Chennai TN.",
    "city": "Chennai",
    "specialists": [
      "General Medicine"
    ],
    "insurance": [
      "MA"
    ],
    "fee": 407,
    "rating": 4.8,
    "reviews": "Processed via AI: Highly recommended for General Medicine",
    "location": {
      "lat": 13.102739393143084,
      "lng": 80.31190553443196
    }
  },
  {
    "id": 180,
    "external_id": "11332",
    "name": "Govt. Omandhurar Medical coll and hosp,Chennai TN.",
    "city": "Chennai",
    "specialists": [
      "General Medicine"
    ],
    "insurance": [
      "MA",
      "CMCHIS (Govt Scheme)",
      "PMJAY"
    ],
    "fee": 0,
    "rating": 4.7,
    "reviews": "Processed via AI: Highly recommended for General Medicine",
    "location": {
      "lat": 13.086693217519942,
      "lng": 80.29913102977028
    }
  },
  {
    "id": 181,
    "external_id": "11318",
    "name": "Govt. OSTC, Kannagi Nagar, Chennai, TN.",
    "city": "Chennai",
    "specialists": [
      "General Medicine"
    ],
    "insurance": [
      "MA"
    ],
    "fee": 615,
    "rating": 5,
    "reviews": "Processed via AI: Highly recommended for General Medicine",
    "location": {
      "lat": 13.059117319261372,
      "lng": 80.26069663543879
    }
  },
  {
    "id": 182,
    "external_id": "11329",
    "name": "Govt. Royapettah Hospital, Royapetta,Chennai TN.",
    "city": "Chennai",
    "specialists": [
      "General Medicine"
    ],
    "insurance": [
      "MA",
      "CMCHIS (Govt Scheme)",
      "PMJAY"
    ],
    "fee": 0,
    "rating": 4.1,
    "reviews": "Processed via AI: Highly recommended for General Medicine",
    "location": {
      "lat": 13.074366891564914,
      "lng": 80.2292053268077
    }
  },
  {
    "id": 183,
    "external_id": "11322",
    "name": "Govt. Stanley Medical College Hospital,Chennai TN.",
    "city": "Chennai",
    "specialists": [
      "General Medicine"
    ],
    "insurance": [
      "MA",
      "CMCHIS (Govt Scheme)",
      "PMJAY"
    ],
    "fee": 0,
    "rating": 3.5,
    "reviews": "Processed via AI: Highly recommended for General Medicine",
    "location": {
      "lat": 13.064896416645068,
      "lng": 80.22837696093842
    }
  },
  {
    "id": 184,
    "external_id": "11323",
    "name": "Govt.Kilpauk Medical CollegeHospitalChennai,TN.",
    "city": "Chennai",
    "specialists": [
      "General Medicine"
    ],
    "insurance": [
      "MA",
      "CMCHIS (Govt Scheme)",
      "PMJAY"
    ],
    "fee": 0,
    "rating": 4.8,
    "reviews": "Processed via AI: Highly recommended for General Medicine",
    "location": {
      "lat": 13.100911683362279,
      "lng": 80.23865777698958
    }
  },
  {
    "id": 185,
    "external_id": "11321",
    "name": "Govt.Super Speciality Hospital,Omandur Chennai TN.",
    "city": "Chennai",
    "specialists": [
      "General Medicine"
    ],
    "insurance": [
      "MA",
      "CMCHIS (Govt Scheme)",
      "PMJAY"
    ],
    "fee": 0,
    "rating": 4,
    "reviews": "Processed via AI: Highly recommended for General Medicine",
    "location": {
      "lat": 13.05214972247981,
      "lng": 80.25489770615417
    }
  },
  {
    "id": 186,
    "external_id": "11336",
    "name": "GOVT.TB HOSPITAL OTTERI , CHENNAI TN.",
    "city": "Chennai",
    "specialists": [
      "General Medicine"
    ],
    "insurance": [
      "MA",
      "CMCHIS (Govt Scheme)",
      "PMJAY"
    ],
    "fee": 0,
    "rating": 4.5,
    "reviews": "Processed via AI: Highly recommended for General Medicine",
    "location": {
      "lat": 13.083593920880743,
      "lng": 80.22178060622352
    }
  },
  {
    "id": 187,
    "external_id": "11342",
    "name": "Govt.UPHC Kondithop ,Chennai TN.",
    "city": "Chennai",
    "specialists": [
      "General Medicine"
    ],
    "insurance": [
      "MA",
      "CMCHIS (Govt Scheme)",
      "PMJAY"
    ],
    "fee": 0,
    "rating": 3.9,
    "reviews": "Processed via AI: Highly recommended for General Medicine",
    "location": {
      "lat": 13.032704406689383,
      "lng": 80.27990564223674
    }
  },
  {
    "id": 188,
    "external_id": "11381",
    "name": "Healthcare global enterprises Ltd, Chennai DC. ",
    "city": "Chennai",
    "specialists": [
      "ENT Specialist"
    ],
    "insurance": [
      "MA"
    ],
    "fee": 612,
    "rating": 3.7,
    "reviews": "Processed via AI: Highly recommended for ENT Specialist",
    "location": {
      "lat": 13.078914230796489,
      "lng": 80.30531105704421
    }
  },
  {
    "id": 189,
    "external_id": "11443",
    "name": "Hycare Super Speciality Hospital, Chennai TN.",
    "city": "Chennai",
    "specialists": [
      "General Medicine"
    ],
    "insurance": [
      "MA"
    ],
    "fee": 476,
    "rating": 4.6,
    "reviews": "Processed via AI: Highly recommended for General Medicine",
    "location": {
      "lat": 13.033606926733441,
      "lng": 80.31244657996169
    }
  },
  {
    "id": 190,
    "external_id": "11326",
    "name": "ICH,Egmore,Chennai TN.",
    "city": "Chennai",
    "specialists": [
      "General Medicine"
    ],
    "insurance": [
      "MA",
      "CMCHIS (Govt Scheme)",
      "PMJAY"
    ],
    "fee": 0,
    "rating": 4.6,
    "reviews": "Processed via AI: Highly recommended for General Medicine",
    "location": {
      "lat": 13.126936959382519,
      "lng": 80.23037244356631
    }
  },
  {
    "id": 191,
    "external_id": "11325",
    "name": "IOG,Egmore,Chennai TN.",
    "city": "Chennai",
    "specialists": [
      "General Medicine"
    ],
    "insurance": [
      "MA",
      "CMCHIS (Govt Scheme)",
      "PMJAY"
    ],
    "fee": 0,
    "rating": 4.6,
    "reviews": "Processed via AI: Highly recommended for General Medicine",
    "location": {
      "lat": 13.09315573026853,
      "lng": 80.26133123804756
    }
  },
  {
    "id": 192,
    "external_id": "11452",
    "name": "Iswarya Fertility, Adyar, Chennai TN.",
    "city": "Chennai",
    "specialists": [
      "General Medicine"
    ],
    "insurance": [
      "MA"
    ],
    "fee": 586,
    "rating": 4.2,
    "reviews": "Processed via AI: Highly recommended for General Medicine",
    "location": {
      "lat": 13.102373543244257,
      "lng": 80.30701986197323
    }
  },
  {
    "id": 193,
    "external_id": "11379",
    "name": "Jeenomics Laboratory Private Ltd, Chennai DC.",
    "city": "Chennai",
    "specialists": [
      "General Medicine"
    ],
    "insurance": [
      "MA"
    ],
    "fee": 415,
    "rating": 4.5,
    "reviews": "Processed via AI: Highly recommended for General Medicine",
    "location": {
      "lat": 13.067707031464675,
      "lng": 80.2396534139962
    }
  },
  {
    "id": 194,
    "external_id": "11371",
    "name": "Jeevan Stem Cell Foundation, Chennai DC.",
    "city": "Chennai",
    "specialists": [
      "General Medicine"
    ],
    "insurance": [
      "MA"
    ],
    "fee": 444,
    "rating": 3.5,
    "reviews": "Processed via AI: Highly recommended for General Medicine",
    "location": {
      "lat": 13.090877328681627,
      "lng": 80.30024037174661
    }
  },
  {
    "id": 195,
    "external_id": "11438",
    "name": "Kanchi Kamakoti Child Trust Hospital ,Chennai TN.",
    "city": "Chennai",
    "specialists": [
      "Gynecologist",
      "Pediatrician"
    ],
    "insurance": [
      "MA"
    ],
    "fee": 586,
    "rating": 4.2,
    "reviews": "Processed via AI: Highly recommended for Gynecologist",
    "location": {
      "lat": 13.058150838018454,
      "lng": 80.31632513485562
    }
  },
  {
    "id": 196,
    "external_id": "11400",
    "name": "Kauvery Hospital Chennai,TN.",
    "city": "Chennai",
    "specialists": [
      "General Medicine"
    ],
    "insurance": [
      "MA"
    ],
    "fee": 316,
    "rating": 4.2,
    "reviews": "Processed via AI: Highly recommended for General Medicine",
    "location": {
      "lat": 13.056687303665731,
      "lng": 80.28813217566017
    }
  },
  {
    "id": 197,
    "external_id": "11466",
    "name": "Kauvery Hospital, Vadapalani, Chennai, TN.",
    "city": "Chennai",
    "specialists": [
      "General Medicine"
    ],
    "insurance": [
      "MA"
    ],
    "fee": 639,
    "rating": 3.6,
    "reviews": "Processed via AI: Highly recommended for General Medicine",
    "location": {
      "lat": 13.036359468524202,
      "lng": 80.31984144937482
    }
  },
  {
    "id": 198,
    "external_id": "11478",
    "name": "Kewalchand Mohanabai Dialysis Centr, Chennai TN.",
    "city": "Chennai",
    "specialists": [
      "Nephrologist"
    ],
    "insurance": [
      "MA"
    ],
    "fee": 780,
    "rating": 4.3,
    "reviews": "Processed via AI: Highly recommended for Nephrologist",
    "location": {
      "lat": 13.035504370432708,
      "lng": 80.2573792718101
    }
  },
  {
    "id": 199,
    "external_id": "11324",
    "name": "KGH,Chennai TN.",
    "city": "Chennai",
    "specialists": [
      "General Medicine"
    ],
    "insurance": [
      "MA",
      "CMCHIS (Govt Scheme)",
      "PMJAY"
    ],
    "fee": 0,
    "rating": 4.8,
    "reviews": "Processed via AI: Highly recommended for General Medicine",
    "location": {
      "lat": 13.125586490624599,
      "lng": 80.23795750325985
    }
  },
  {
    "id": 200,
    "external_id": "11479",
    "name": "Khivraj Chordia Memorial Dialysis, Chennai TN. ",
    "city": "Chennai",
    "specialists": [
      "Nephrologist"
    ],
    "insurance": [
      "MA"
    ],
    "fee": 522,
    "rating": 3.8,
    "reviews": "Processed via AI: Highly recommended for Nephrologist",
    "location": {
      "lat": 13.124916672175436,
      "lng": 80.29880009459214
    }
  },
  {
    "id": 201,
    "external_id": "11316",
    "name": "KK Nagar Rehabilitation Centre,DDAWO,Chennai TN.",
    "city": "Chennai",
    "specialists": [
      "ENT Specialist"
    ],
    "insurance": [
      "MA"
    ],
    "fee": 632,
    "rating": 4.3,
    "reviews": "Processed via AI: Highly recommended for ENT Specialist",
    "location": {
      "lat": 13.101725158485188,
      "lng": 80.26356084077779
    }
  },
  {
    "id": 202,
    "external_id": "11409",
    "name": "KKR ENT Hospital And Institute, Chennai TN.",
    "city": "Chennai",
    "specialists": [
      "ENT Specialist"
    ],
    "insurance": [
      "MA"
    ],
    "fee": 321,
    "rating": 4.1,
    "reviews": "Processed via AI: Highly recommended for ENT Specialist",
    "location": {
      "lat": 13.12636121031412,
      "lng": 80.29836028218445
    }
  },
  {
    "id": 203,
    "external_id": "11458",
    "name": "KL Hospital, Neelangarai, Chennai TN.",
    "city": "Chennai",
    "specialists": [
      "General Medicine"
    ],
    "insurance": [
      "MA"
    ],
    "fee": 364,
    "rating": 4.1,
    "reviews": "Processed via AI: Highly recommended for General Medicine",
    "location": {
      "lat": 13.047797895761192,
      "lng": 80.26087847955776
    }
  },
  {
    "id": 204,
    "external_id": "11463",
    "name": "Kolathur Dialysis and Medical Center, Chennai TN.",
    "city": "Chennai",
    "specialists": [
      "Nephrologist"
    ],
    "insurance": [
      "MA"
    ],
    "fee": 372,
    "rating": 4,
    "reviews": "Processed via AI: Highly recommended for Nephrologist",
    "location": {
      "lat": 13.106737766417877,
      "lng": 80.31926698678524
    }
  },
  {
    "id": 205,
    "external_id": "11415",
    "name": "Kumaran Hospital Kilpauk, Chennai TN.",
    "city": "Chennai",
    "specialists": [
      "General Medicine"
    ],
    "insurance": [
      "MA"
    ],
    "fee": 694,
    "rating": 4.8,
    "reviews": "Processed via AI: Highly recommended for General Medicine",
    "location": {
      "lat": 13.043364324941166,
      "lng": 80.28861583163362
    }
  },
  {
    "id": 206,
    "external_id": "11430",
    "name": "Laksha Hospital,Chennai TN.",
    "city": "Chennai",
    "specialists": [
      "General Medicine"
    ],
    "insurance": [
      "MA"
    ],
    "fee": 712,
    "rating": 4.3,
    "reviews": "Processed via AI: Highly recommended for General Medicine",
    "location": {
      "lat": 13.059133138373724,
      "lng": 80.27759337274111
    }
  },
  {
    "id": 207,
    "external_id": "11380",
    "name": "Lamfer Healthcare Private Ltd, Chennai DC.",
    "city": "Chennai",
    "specialists": [
      "General Medicine"
    ],
    "insurance": [
      "MA"
    ],
    "fee": 753,
    "rating": 4.8,
    "reviews": "Processed via AI: Highly recommended for General Medicine",
    "location": {
      "lat": 13.042437256483348,
      "lng": 80.23362818433633
    }
  },
  {
    "id": 208,
    "external_id": "11361",
    "name": "Liberty High Scans, Alwarpet, Chennai DC.",
    "city": "Chennai",
    "specialists": [
      "Radiologist"
    ],
    "insurance": [
      "MA"
    ],
    "fee": 370,
    "rating": 4.5,
    "reviews": "Processed via AI: Highly recommended for Radiologist",
    "location": {
      "lat": 13.076189651378629,
      "lng": 80.22791296843562
    }
  },
  {
    "id": 209,
    "external_id": "11428",
    "name": "Lifeline Multispeciality Hospital, Chennai TN.",
    "city": "Chennai",
    "specialists": [
      "General Physician",
      "Cardiologist",
      "Orthopedic Surgeon"
    ],
    "insurance": [
      "MA"
    ],
    "fee": 399,
    "rating": 5,
    "reviews": "Processed via AI: Highly recommended for General Physician",
    "location": {
      "lat": 13.068993230842818,
      "lng": 80.30783061989158
    }
  },
  {
    "id": 210,
    "external_id": "11424",
    "name": "M R Hospital,Chennai TN.",
    "city": "Chennai",
    "specialists": [
      "General Medicine"
    ],
    "insurance": [
      "MA"
    ],
    "fee": 384,
    "rating": 4.6,
    "reviews": "Processed via AI: Highly recommended for General Medicine",
    "location": {
      "lat": 13.066146474245633,
      "lng": 80.28810595118364
    }
  },
  {
    "id": 211,
    "external_id": "11422",
    "name": "M.N Eye Hospital,Chennai TN.",
    "city": "Chennai",
    "specialists": [
      "Ophthalmologist"
    ],
    "insurance": [
      "MA"
    ],
    "fee": 317,
    "rating": 4.2,
    "reviews": "Processed via AI: Highly recommended for Ophthalmologist",
    "location": {
      "lat": 13.090453103755316,
      "lng": 80.29779499099769
    }
  },
  {
    "id": 212,
    "external_id": "11359",
    "name": "TN.",
    "city": "Chennai",
    "specialists": [
      "General Medicine"
    ],
    "insurance": [
      "MA"
    ],
    "fee": 408,
    "rating": 4.1,
    "reviews": "Processed via AI: Highly recommended for General Medicine",
    "location": {
      "lat": 13.068149029834778,
      "lng": 80.28484272236065
    }
  },
  {
    "id": 213,
    "external_id": "11396",
    "name": "Madras ENT Research Foundation,Chennai TN.",
    "city": "Chennai",
    "specialists": [
      "ENT Specialist"
    ],
    "insurance": [
      "MA"
    ],
    "fee": 672,
    "rating": 4.4,
    "reviews": "Processed via AI: Highly recommended for ENT Specialist",
    "location": {
      "lat": 13.045509449344609,
      "lng": 80.30203729218894
    }
  },
  {
    "id": 214,
    "external_id": "11330",
    "name": "Madras Medical College,Chennai TN.",
    "city": "Chennai",
    "specialists": [
      "General Medicine"
    ],
    "insurance": [
      "MA",
      "CMCHIS (Govt Scheme)",
      "PMJAY"
    ],
    "fee": 0,
    "rating": 4.9,
    "reviews": "Processed via AI: Highly recommended for General Medicine",
    "location": {
      "lat": 13.049296448560941,
      "lng": 80.2570386735811
    }
  },
  {
    "id": 215,
    "external_id": "11370",
    "name": "Madras Scans And Labs, Chennai DC.",
    "city": "Chennai",
    "specialists": [
      "Radiologist"
    ],
    "insurance": [
      "MA"
    ],
    "fee": 636,
    "rating": 4.5,
    "reviews": "Processed via AI: Highly recommended for Radiologist",
    "location": {
      "lat": 13.033417409335868,
      "lng": 80.24665423121726
    }
  },
  {
    "id": 216,
    "external_id": "11364",
    "name": "Med All ,Kilpauk,Chennai DC.",
    "city": "Chennai",
    "specialists": [
      "General Medicine"
    ],
    "insurance": [
      "MA"
    ],
    "fee": 361,
    "rating": 4,
    "reviews": "Processed via AI: Highly recommended for General Medicine",
    "location": {
      "lat": 13.04909588058546,
      "lng": 80.28082568563266
    }
  },
  {
    "id": 217,
    "external_id": "11423",
    "name": "Medical Research Foundation,Chennai TN.",
    "city": "Chennai",
    "specialists": [
      "ENT Specialist"
    ],
    "insurance": [
      "MA"
    ],
    "fee": 725,
    "rating": 5,
    "reviews": "Processed via AI: Highly recommended for ENT Specialist",
    "location": {
      "lat": 13.091917236443438,
      "lng": 80.29826172476864
    }
  },
  {
    "id": 218,
    "external_id": "11472",
    "name": "Medway Heart Institute, Chennai, TN.",
    "city": "CHENNAI",
    "specialists": [
      "ENT Specialist"
    ],
    "insurance": [
      "MA"
    ],
    "fee": 680,
    "rating": 4.3,
    "reviews": "Processed via AI: Highly recommended for ENT Specialist",
    "location": {
      "lat": 11.081597828321195,
      "lng": 78.63898510449333
    }
  },
  {
    "id": 219,
    "external_id": "11432",
    "name": "Medway Hospital, Chennai TN.",
    "city": "Chennai",
    "specialists": [
      "General Medicine"
    ],
    "insurance": [
      "MA"
    ],
    "fee": 617,
    "rating": 3.7,
    "reviews": "Processed via AI: Highly recommended for General Medicine",
    "location": {
      "lat": 13.111507992013005,
      "lng": 80.24071052444542
    }
  },
  {
    "id": 220,
    "external_id": "11465",
    "name": "Meridian Hospital, Chennai, TN.",
    "city": "CHENNAI",
    "specialists": [
      "General Medicine"
    ],
    "insurance": [
      "MA"
    ],
    "fee": 638,
    "rating": 4.1,
    "reviews": "Processed via AI: Highly recommended for General Medicine",
    "location": {
      "lat": 11.148089635575808,
      "lng": 78.67209954480619
    }
  },
  {
    "id": 221,
    "external_id": "11473",
    "name": "MGM Cancer Institute, Aminijikarai, Chennai, TN.",
    "city": "CHENNAI",
    "specialists": [
      "Oncologist"
    ],
    "insurance": [
      "MA"
    ],
    "fee": 680,
    "rating": 5,
    "reviews": "Processed via AI: Highly recommended for Oncologist",
    "location": {
      "lat": 11.158924816739898,
      "lng": 78.67728718491877
    }
  },
  {
    "id": 222,
    "external_id": "11474",
    "name": "Mgm Healthcare Malar Adyar, Chennai, TN.",
    "city": "Chennai",
    "specialists": [
      "General Medicine"
    ],
    "insurance": [
      "MA"
    ],
    "fee": 729,
    "rating": 4.1,
    "reviews": "Processed via AI: Highly recommended for General Medicine",
    "location": {
      "lat": 13.089102488737643,
      "lng": 80.30490008102406
    }
  },
  {
    "id": 223,
    "external_id": "11441",
    "name": "MGM HOSPITAL, Chennai TN.",
    "city": "Chennai",
    "specialists": [
      "General Medicine"
    ],
    "insurance": [
      "MA"
    ],
    "fee": 326,
    "rating": 4.4,
    "reviews": "Processed via AI: Highly recommended for General Medicine",
    "location": {
      "lat": 13.039748650715428,
      "lng": 80.31212816794441
    }
  },
  {
    "id": 224,
    "external_id": "11414",
    "name": "Miot Hospital, Chennai TN. ",
    "city": "Chennai",
    "specialists": [
      "General Medicine"
    ],
    "insurance": [
      "MA"
    ],
    "fee": 789,
    "rating": 4.4,
    "reviews": "Processed via AI: Highly recommended for General Medicine",
    "location": {
      "lat": 13.104539441664134,
      "lng": 80.22303712414607
    }
  },
  {
    "id": 225,
    "external_id": "11440",
    "name": "MK Speciality Clinic,Chennai TN.",
    "city": "Chennai",
    "specialists": [
      "General Medicine"
    ],
    "insurance": [
      "MA"
    ],
    "fee": 495,
    "rating": 3.7,
    "reviews": "Processed via AI: Highly recommended for General Medicine",
    "location": {
      "lat": 13.105736656962822,
      "lng": 80.30148921946166
    }
  },
  {
    "id": 226,
    "external_id": "11431",
    "name": "Murugan Hospital kilpauk, Chennai TN.",
    "city": "Chennai",
    "specialists": [
      "General Medicine"
    ],
    "insurance": [
      "MA"
    ],
    "fee": 565,
    "rating": 3.7,
    "reviews": "Processed via AI: Highly recommended for General Medicine",
    "location": {
      "lat": 13.065977056259669,
      "lng": 80.23692699961511
    }
  },
  {
    "id": 227,
    "external_id": "11460",
    "name": "Namar heart hospital, Royapettah, Chennai TN.",
    "city": "Chennai",
    "specialists": [
      "ENT Specialist"
    ],
    "insurance": [
      "MA"
    ],
    "fee": 333,
    "rating": 4.4,
    "reviews": "Processed via AI: Highly recommended for ENT Specialist",
    "location": {
      "lat": 13.122754362854874,
      "lng": 80.29724239204005
    }
  },
  {
    "id": 228,
    "external_id": "11468",
    "name": "Narayanaa Hospital, Purasaiwakkam, Chennai, TN. ",
    "city": "CHENNAI",
    "specialists": [
      "General Medicine"
    ],
    "insurance": [
      "MA"
    ],
    "fee": 585,
    "rating": 4.6,
    "reviews": "Processed via AI: Highly recommended for General Medicine",
    "location": {
      "lat": 11.159610845508375,
      "lng": 78.61775062519462
    }
  },
  {
    "id": 229,
    "external_id": "11335",
    "name": "National Centre of Ageing, Chennai TN.",
    "city": "Chennai",
    "specialists": [
      "ENT Specialist"
    ],
    "insurance": [
      "MA",
      "CMCHIS (Govt Scheme)",
      "PMJAY"
    ],
    "fee": 0,
    "rating": 4.7,
    "reviews": "Processed via AI: Highly recommended for ENT Specialist",
    "location": {
      "lat": 13.106367346541479,
      "lng": 80.2711636645223
    }
  },
  {
    "id": 230,
    "external_id": "11408",
    "name": "New Hope Medical Center, Chennai TN.",
    "city": "Chennai",
    "specialists": [
      "ENT Specialist"
    ],
    "insurance": [
      "MA"
    ],
    "fee": 460,
    "rating": 4.2,
    "reviews": "Processed via AI: Highly recommended for ENT Specialist",
    "location": {
      "lat": 13.037327995100942,
      "lng": 80.23328629556157
    }
  },
  {
    "id": 231,
    "external_id": "11410",
    "name": "TN.",
    "city": "Chennai",
    "specialists": [
      "General Medicine"
    ],
    "insurance": [
      "MA"
    ],
    "fee": 754,
    "rating": 4.8,
    "reviews": "Processed via AI: Highly recommended for General Medicine",
    "location": {
      "lat": 13.126666017178366,
      "lng": 80.27357963155004
    }
  },