[
  {
    "id": 1,
    "external_id": "13126",
    "name": "Thiruvallur",
    "city": "Private",
    "specialists": [
      "General Medicine"
    ],
    "insurance": [
      "Star Health",
      "PNB MetLife"
    ],
    "fee": 735,
    "rating": 4.5,
    "reviews": "Processed via AI: Highly recommended for General Medicine",
    "location": {
      "lat": 11.160785843538251,
      "lng": 78.65058868805794
    }
  },
  {
    "id": 2,
    "external_id": "11219",
    "name": "A.S Imaging Centre Pvt Ltd, Ariyalur TN.",
    "city": "Ariyalur",
    "specialists": [
      "Radiologist"
    ],
    "insurance": [
      "Star Health",
      "PNB MetLife"
    ],
    "fee": 369,
    "rating": 4.7,
    "reviews": "Processed via AI: Highly recommended for Radiologist",
    "location": {
      "lat": 11.185683042082466,
      "lng": 79.09571033965886
    }
  },
  {
    "id": 3,
    "external_id": "11220",
    "name": "Ariyalur Golden Hospital Pvt.Ltd, Ariyalur TN.",
    "city": "Ariyalur",
    "specialists": [
      "General Medicine"
    ],
    "insurance": [
      "Star Health",
      "PNB MetLife"
    ],
    "fee": 599,
    "rating": 4.6,
    "reviews": "Processed via AI: Highly recommended for General Medicine",
    "location": {
      "lat": 11.11244021428069,
      "lng": 79.05376582160793
    }
  },
  {
    "id": 4,
    "external_id": "11207",
    "name": "DEIC , Ariyalur TN.",
    "city": "Ariyalur",
    "specialists": [
      "General Medicine"
    ],
    "insurance": [
      "Star Health",
      "PNB MetLife"
    ],
    "fee": 347,
    "rating": 4.6,
    "reviews": "Processed via AI: Highly recommended for General Medicine",
    "location": {
      "lat": 11.169443399419587,
      "lng": 79.10479172616762
    }
  },
  {
    "id": 5,
    "external_id": "11206",
    "name": "District Diff. abled welfare office,Ariyalur TN.",
    "city": "Ariyalur",
    "specialists": [
      "General Medicine"
    ],
    "insurance": [
      "Star Health",
      "PNB MetLife"
    ],
    "fee": 763,
    "rating": 4.5,
    "reviews": "Processed via AI: Highly recommended for General Medicine",
    "location": {
      "lat": 11.176821869061436,
      "lng": 79.10927720076329
    }
  },
  {
    "id": 6,
    "external_id": "11212",
    "name": "Govt Andimadam UPHC, Ariyalur TN.",
    "city": "Ariyalur",
    "specialists": [
      "General Medicine"
    ],
    "insurance": [
      "Star Health",
      "PNB MetLife",
      "CMCHIS (Govt Scheme)"
    ],
    "fee": 0,
    "rating": 3.9,
    "reviews": "Processed via AI: Highly recommended for General Medicine",
    "location": {
      "lat": 11.172478515469729,
      "lng": 79.09199285617535
    }
  },
  {
    "id": 7,
    "external_id": "11211",
    "name": "Govt Hospital, Sendurai, Ariyalur TN.",
    "city": "Ariyalur",
    "specialists": [
      "General Medicine"
    ],
    "insurance": [
      "Star Health",
      "PNB MetLife",
      "CMCHIS (Govt Scheme)"
    ],
    "fee": 0,
    "rating": 4.3,
    "reviews": "Processed via AI: Highly recommended for General Medicine",
    "location": {
      "lat": 11.165232004324011,
      "lng": 79.04163809925085
    }
  },
  {
    "id": 8,
    "external_id": "11210",
    "name": "Govt Hospital, Udayarpalayam, Ariyalur TN.",
    "city": "Ariyalur",
    "specialists": [
      "General Medicine"
    ],
    "insurance": [
      "Star Health",
      "PNB MetLife",
      "CMCHIS (Govt Scheme)"
    ],
    "fee": 0,
    "rating": 3.5,
    "reviews": "Processed via AI: Highly recommended for General Medicine",
    "location": {
      "lat": 11.138941475731853,
      "lng": 79.05595639962495
    }
  },
  {
    "id": 9,
    "external_id": "11217",
    "name": "Govt Kadugur UPHC, Ariyalur TN.",
    "city": "Ariyalur",
    "specialists": [
      "General Medicine"
    ],
    "insurance": [
      "Star Health",
      "PNB MetLife",
      "CMCHIS (Govt Scheme)"
    ],
    "fee": 0,
    "rating": 3.5,
    "reviews": "Processed via AI: Highly recommended for General Medicine",
    "location": {
      "lat": 11.099667647882006,
      "lng": 79.04040926071035
    }
  },
  {
    "id": 10,
    "external_id": "11214",
    "name": "Govt Kumiliyam UPHC, Sendurai,  Ariyalur TN.",
    "city": "Ariyalur",
    "specialists": [
      "General Medicine"
    ],
    "insurance": [
      "Star Health",
      "PNB MetLife",
      "CMCHIS (Govt Scheme)"
    ],
    "fee": 0,
    "rating": 4,
    "reviews": "Processed via AI: Highly recommended for General Medicine",
    "location": {
      "lat": 11.152103790071067,
      "lng": 79.1140669313227
    }
  },
  {
    "id": 11,
    "external_id": "11213",
    "name": "Govt Meensurtty UPHC, Jayankondam, Ariyalur TN.",
    "city": "Ariyalur",
    "specialists": [
      "General Medicine"
    ],
    "insurance": [
      "Star Health",
      "PNB MetLife",
      "CMCHIS (Govt Scheme)"
    ],
    "fee": 0,
    "rating": 4.7,
    "reviews": "Processed via AI: Highly recommended for General Medicine",
    "location": {
      "lat": 11.089963838219974,
      "lng": 79.03962282859888
    }
  },
  {
    "id": 12,
    "external_id": "11215",
    "name": "Govt T.Palur UPHC, Ariyalur TN.",
    "city": "Ariyalur",
    "specialists": [
      "General Medicine"
    ],
    "insurance": [
      "Star Health",
      "PNB MetLife",
      "CMCHIS (Govt Scheme)"
    ],
    "fee": 0,
    "rating": 3.8,
    "reviews": "Processed via AI: Highly recommended for General Medicine",
    "location": {
      "lat": 11.157861354793631,
      "lng": 79.12290872175204
    }
  },
  {
    "id": 13,
    "external_id": "11216",
    "name": "Govt Thirumanur UPHC,  Ariyalur TN.",
    "city": "Ariyalur",
    "specialists": [
      "General Medicine"
    ],
    "insurance": [
      "Star Health",
      "PNB MetLife",
      "CMCHIS (Govt Scheme)"
    ],
    "fee": 0,
    "rating": 4.3,
    "reviews": "Processed via AI: Highly recommended for General Medicine",
    "location": {
      "lat": 11.131501193512062,
      "lng": 79.07212909959816
    }
  },
  {
    "id": 14,
    "external_id": "11208",
    "name": "Govt. Medical College and Hosp, Ariyalur TN.",
    "city": "Ariyalur",
    "specialists": [
      "General Medicine"
    ],
    "insurance": [
      "Star Health",
      "PNB MetLife",
      "CMCHIS (Govt Scheme)"
    ],
    "fee": 0,
    "rating": 3.7,
    "reviews": "Processed via AI: Highly recommended for General Medicine",
    "location": {
      "lat": 11.17566106454325,
      "lng": 79.10254757240538
    }
  },
  {
    "id": 15,
    "external_id": "11209",
    "name": "Govt.Head Qrtrs Jayakondam,Ariyalur TN.",
    "city": "Ariyalur",
    "specialists": [
      "General Medicine"
    ],
    "insurance": [
      "Star Health",
      "PNB MetLife",
      "CMCHIS (Govt Scheme)"
    ],
    "fee": 0,
    "rating": 4.8,
    "reviews": "Processed via AI: Highly recommended for General Medicine",
    "location": {
      "lat": 11.108114468535353,
      "lng": 79.09222607357917
    }
  },
  {
    "id": 16,
    "external_id": "11218",
    "name": "KVS Scans and Diagnostic, Ariyalur DC.",
    "city": "Ariyalur",
    "specialists": [
      "Radiologist"
    ],
    "insurance": [
      "Star Health",
      "PNB MetLife"
    ],
    "fee": 702,
    "rating": 4.7,
    "reviews": "Processed via AI: Highly recommended for Radiologist",
    "location": {
      "lat": 11.137187721029902,
      "lng": 79.1114295094649
    }
  },
  {
    "id": 17,
    "external_id": "11222",
    "name": "Nalam Multispeciality Hospital, Ariyalur TN. ",
    "city": "Ariyalur",
    "specialists": [
      "General Physician",
      "Cardiologist",
      "Orthopedic Surgeon"
    ],
    "insurance": [
      "Star Health",
      "PNB MetLife"
    ],
    "fee": 759,
    "rating": 5,
    "reviews": "Processed via AI: Highly recommended for General Physician",
    "location": {
      "lat": 11.169847294792866,
      "lng": 79.02988747809161
    }
  },
  {
    "id": 18,
    "external_id": "11221",
    "name": "New life Critical Care Centre, Ariyalur TN.",
    "city": "Ariyalur",
    "specialists": [
      "ENT Specialist"
    ],
    "insurance": [
      "Star Health",
      "PNB MetLife"
    ],
    "fee": 622,
    "rating": 3.9,
    "reviews": "Processed via AI: Highly recommended for ENT Specialist",
    "location": {
      "lat": 11.096161532326,
      "lng": 79.07723489582865
    }
  },
  {
    "id": 19,
    "external_id": "11248",
    "name": "Aarthi Scans, Chengalpet DC.",
    "city": "Chengalpet",
    "specialists": [
      "Radiologist"
    ],
    "insurance": [
      "Star Health",
      "PNB MetLife"
    ],
    "fee": 512,
    "rating": 4.9,
    "reviews": "Processed via AI: Highly recommended for Radiologist",
    "location": {
      "lat": 11.082466431887696,
      "lng": 78.61766566354531
    }
  },
  {
    "id": 20,
    "external_id": "11246",
    "name": "Absolute Special School, Autism, Chengalpattu, TN. ",
    "city": "Chengalpet",
    "specialists": [
      "General Medicine"
    ],
    "insurance": [
      "Star Health",
      "PNB MetLife"
    ],
    "fee": 541,
    "rating": 4,
    "reviews": "Processed via AI: Highly recommended for General Medicine",
    "location": {
      "lat": 11.07983581160145,
      "lng": 78.70303070608315
    }
  },
  {
    "id": 21,
    "external_id": "11253",
    "name": "Annai Arul Hospital, Chengalpet TN.",
    "city": "Chengalpet",
    "specialists": [
      "General Medicine"
    ],
    "insurance": [
      "Star Health",
      "PNB MetLife"
    ],
    "fee": 420,
    "rating": 4.7,
    "reviews": "Processed via AI: Highly recommended for General Medicine",
    "location": {
      "lat": 11.140501514787893,
      "lng": 78.62059148280002
    }
  },
  {
    "id": 22,
    "external_id": "11274",
    "name": "Apollo Speciality Hosptial, OMR, Chengalpet TN.",
    "city": "Chengalpet",
    "specialists": [
      "General Medicine"
    ],
    "insurance": [
      "Star Health",
      "PNB MetLife"
    ],
    "fee": 302,
    "rating": 3.8,
    "reviews": "Processed via AI: Highly recommended for General Medicine",
    "location": {
      "lat": 11.09028218504221,
      "lng": 78.6727102781366
    }
  },
  {
    "id": 23,
    "external_id": "11249",
    "name": "Arya Scans, Chengalpet DC.",
    "city": "Chengalpet",
    "specialists": [
      "Radiologist"
    ],
    "insurance": [
      "Star Health",
      "PNB MetLife"
    ],
    "fee": 517,
    "rating": 5,
    "reviews": "Processed via AI: Highly recommended for Radiologist",
    "location": {
      "lat": 11.12191344666357,
      "lng": 78.6248173404286
    }
  },
  {
    "id": 24,
    "external_id": "11276",
    "name": "B.M Hospital, Nanganallur, Chengalpet TN.",
    "city": "Chengalpet",
    "specialists": [
      "General Medicine"
    ],
    "insurance": [
      "Star Health",
      "PNB MetLife"
    ],
    "fee": 546,
    "rating": 4.5,
    "reviews": "Processed via AI: Highly recommended for General Medicine",
    "location": {
      "lat": 11.15203673756182,
      "lng": 78.634457849917
    }
  },
  {
    "id": 25,
    "external_id": "11259",
    "name": "Balaji Hospital, Chengalpet TN.",
    "city": "Chengalpet",
    "specialists": [
      "General Medicine"
    ],
    "insurance": [
      "Star Health",
      "PNB MetLife"
    ],
    "fee": 723,
    "rating": 4.5,
    "reviews": "Processed via AI: Highly recommended for General Medicine",
    "location": {
      "lat": 11.145512630326612,
      "lng": 78.61163232359604
    }
  },
  {
    "id": 26,
    "external_id": "11283",
    "name": "Bharath Medical Col and Hosp, Chengalpet TN.",
    "city": "Chengalpet",
    "specialists": [
      "General Medicine"
    ],
    "insurance": [
      "Star Health",
      "PNB MetLife"
    ],
    "fee": 731,
    "rating": 4,
    "reviews": "Processed via AI: Highly recommended for General Medicine",
    "location": {
      "lat": 11.164170985179204,
      "lng": 78.68830940256954
    }
  },
  {
    "id": 27,
    "external_id": "11280",
    "name": "C-Dot Hospital, Chengalpet TN.",
    "city": "Chengalpet",
    "specialists": [
      "General Medicine"
    ],
    "insurance": [
      "Star Health",
      "PNB MetLife"
    ],
    "fee": 781,
    "rating": 3.7,
    "reviews": "Processed via AI: Highly recommended for General Medicine",
    "location": {
      "lat": 11.17243273517384,
      "lng": 78.61566361995818
    }
  },
  {
    "id": 28,
    "external_id": "11225",
    "name": "Chengalpet Medical College, Chengalpet TN.",
    "city": "Chengalpet",
    "specialists": [
      "General Medicine"
    ],
    "insurance": [
      "Star Health",
      "PNB MetLife",
      "CMCHIS (Govt Scheme)"
    ],
    "fee": 0,
    "rating": 4.4,
    "reviews": "Processed via AI: Highly recommended for General Medicine",
    "location": {
      "lat": 11.173383628442467,
      "lng": 78.69095170486376
    }
  },
  {
    "id": 29,
    "external_id": "11277",
    "name": "Chennai Urology And Robotics Inst, OMR, Chengalpet  TN.",
    "city": "Chengalpet",
    "specialists": [
      "General Medicine"
    ],
    "insurance": [
      "Star Health",
      "PNB MetLife"
    ],
    "fee": 506,
    "rating": 4.8,
    "reviews": "Processed via AI: Highly recommended for General Medicine",
    "location": {
      "lat": 11.135247405242387,
      "lng": 78.63633640347338
    }
  },
  {
    "id": 30,
    "external_id": "11293",
    "name": "Chettinad Hospital and Res Ins, Chengalpet TN.",
    "city": "Chengalpet",
    "specialists": [
      "General Medicine"
    ],
    "insurance": [
      "Star Health",
      "PNB MetLife"
    ],
    "fee": 526,
    "rating": 4.8,
    "reviews": "Processed via AI: Highly recommended for General Medicine",
    "location": {
      "lat": 11.131285893633711,
      "lng": 78.68894487034997
    }
  },
  {
    "id": 31,
    "external_id": "11260",
    "name": "Chettinad Super Speciality Hosp, Chengalpet TN.",
    "city": "Chengalpet",
    "specialists": [
      "General Medicine"
    ],
    "insurance": [
      "Star Health",
      "PNB MetLife"
    ],
    "fee": 603,
    "rating": 4.4,
    "reviews": "Processed via AI: Highly recommended for General Medicine",
    "location": {
      "lat": 11.099483994881345,
      "lng": 78.63471301294602
    }
  },
  {
    "id": 32,
    "external_id": "11266",
    "name": "Dr Kamakshi Memorial Hospital, Chengalpet TN.",
    "city": "Chengalpet",
    "specialists": [
      "General Medicine"
    ],
    "insurance": [
      "Star Health",
      "PNB MetLife"
    ],
    "fee": 793,
    "rating": 4.8,
    "reviews": "Processed via AI: Highly recommended for General Medicine",
    "location": {
      "lat": 11.152278095788024,
      "lng": 78.6872118180149
    }
  },
  {
    "id": 33,
    "external_id": "11271",
    "name": "Dr Kumars Health Care Pvt Ltd, Chengalpet, TN.",
    "city": "Chengalpet",
    "specialists": [
      "General Medicine"
    ],
    "insurance": [
      "Star Health",
      "PNB MetLife"
    ],
    "fee": 410,
    "rating": 3.9,
    "reviews": "Processed via AI: Highly recommended for General Medicine",
    "location": {
      "lat": 11.146657780885409,
      "lng": 78.68129447422265
    }
  },
  {
    "id": 34,
    "external_id": "11278",
    "name": "Dr. Rela Inst. and Medical Centre, Chengalpet TN.",
    "city": "Chengalpet",
    "specialists": [
      "ENT Specialist"
    ],
    "insurance": [
      "Star Health",
      "PNB MetLife"
    ],
    "fee": 761,
    "rating": 4.8,
    "reviews": "Processed via AI: Highly recommended for ENT Specialist",
    "location": {
      "lat": 11.094989942714356,
      "lng": 78.66439712591117
    }
  },
  {
    "id": 35,
    "external_id": "11284",
    "name": "Easy mom Fertility,maternity, Chengalpet TN.",
    "city": "Chengalpet",
    "specialists": [
      "Gynecologist",
      "Pediatrician"
    ],
    "insurance": [
      "Star Health",
      "PNB MetLife"
    ],
    "fee": 522,
    "rating": 3.9,
    "reviews": "Processed via AI: Highly recommended for Gynecologist",
    "location": {
      "lat": 11.164183863397888,
      "lng": 78.7047194710155
    }
  },
  {
    "id": 36,
    "external_id": "11281",
    "name": "Gem Hospital And Res Centre Pvt Ltd, Chengalpet TN.",
    "city": "Chengalpet",
    "specialists": [
      "ENT Specialist"
    ],
    "insurance": [
      "Star Health",
      "PNB MetLife"
    ],
    "fee": 461,
    "rating": 4.1,
    "reviews": "Processed via AI: Highly recommended for ENT Specialist",
    "location": {
      "lat": 11.13401714053074,
      "lng": 78.67107320361374
    }
  },
  {
    "id": 37,
    "external_id": "11251",
    "name": "Genorime Pvt Ltd, Chengalpet, DC.",
    "city": "Chengalpet",
    "specialists": [
      "General Medicine"
    ],
    "insurance": [
      "Star Health",
      "PNB MetLife"
    ],
    "fee": 350,
    "rating": 3.9,
    "reviews": "Processed via AI: Highly recommended for General Medicine",
    "location": {
      "lat": 11.139222841840292,
      "lng": 78.67554803225819
    }
  },
  {
    "id": 38,
    "external_id": "11254",
    "name": "Gleneagles Global Health City, Chengalpet TN.",
    "city": "Chengalpet",
    "specialists": [
      "General Medicine"
    ],
    "insurance": [
      "Star Health",
      "PNB MetLife"
    ],
    "fee": 340,
    "rating": 4.4,
    "reviews": "Processed via AI: Highly recommended for General Medicine",
    "location": {
      "lat": 11.129400856489362,
      "lng": 78.60716101835497
    }
  },
  {
    "id": 39,
    "external_id": "11229",
    "name": "Govt Head Qrtrs Hospital, Tambaram, Chengalpet TN.",
    "city": "Chengalpet",
    "specialists": [
      "General Medicine"
    ],
    "insurance": [
      "Star Health",
      "PNB MetLife",
      "CMCHIS (Govt Scheme)"
    ],
    "fee": 0,
    "rating": 5,
    "reviews": "Processed via AI: Highly recommended for General Medicine",
    "location": {
      "lat": 11.172028186680038,
      "lng": 78.66007093035547
    }
  },
  {
    "id": 40,
    "external_id": "11227",
    "name": "Govt Hospital, Cheyyur Chengalpet TN.",
    "city": "Chengalpet",
    "specialists": [
      "General Medicine"
    ],
    "insurance": [
      "Star Health",
      "PNB MetLife",
      "CMCHIS (Govt Scheme)"
    ],
    "fee": 0,
    "rating": 4.4,
    "reviews": "Processed via AI: Highly recommended for General Medicine",
    "location": {
      "lat": 11.164814214091804,
      "lng": 78.6408243565834
    }
  },
  {
    "id": 41,
    "external_id": "11228",
    "name": "Govt Hospital, Madhurandaham Chengalpet TN.",
    "city": "Chengalpet",
    "specialists": [
      "General Medicine"
    ],
    "insurance": [
      "Star Health",
      "PNB MetLife",
      "CMCHIS (Govt Scheme)"
    ],
    "fee": 0,
    "rating": 4.9,
    "reviews": "Processed via AI: Highly recommended for General Medicine",
    "location": {
      "lat": 11.10598900678574,
      "lng": 78.63162736692851
    }
  },
  {
    "id": 42,
    "external_id": "11230",
    "name": "Govt Hospital, Thiruporur, Chengalpet TN.",
    "city": "Chengalpet",
    "specialists": [
      "General Medicine"
    ],
    "insurance": [
      "Star Health",
      "PNB MetLife",
      "CMCHIS (Govt Scheme)"
    ],
    "fee": 0,
    "rating": 4.6,
    "reviews": "Processed via AI: Highly recommended for General Medicine",
    "location": {
      "lat": 11.164043949113132,
      "lng": 78.651435104904
    }
  },
  {
    "id": 43,
    "external_id": "11231",
    "name": "Govt Hospital,Injabakkam,Chengalpet TN.",
    "city": "Chengalpet",
    "specialists": [
      "General Medicine"
    ],
    "insurance": [
      "Star Health",
      "PNB MetLife",
      "CMCHIS (Govt Scheme)"
    ],
    "fee": 0,
    "rating": 3.6,
    "reviews": "Processed via AI: Highly recommended for General Medicine",
    "location": {
      "lat": 11.162078354724088,
      "lng": 78.65958511645688
    }
  },
  {
    "id": 44,
    "external_id": "11232",
    "name": "Govt Hospital,Mahabalipuram, Chengalpet TN.",
    "city": "Chengalpet",
    "specialists": [
      "General Medicine"
    ],
    "insurance": [
      "Star Health",
      "PNB MetLife",
      "CMCHIS (Govt Scheme)"
    ],
    "fee": 0,
    "rating": 3.7,
    "reviews": "Processed via AI: Highly recommended for General Medicine",
    "location": {
      "lat": 11.106554991423717,
      "lng": 78.68323469709789
    }
  },
  {
    "id": 45,
    "external_id": "11233",
    "name": "Govt Hospital,Thirukalukundram,Chengalpet TN.",
    "city": "Chengalpet",
    "specialists": [
      "General Medicine"
    ],
    "insurance": [
      "Star Health",
      "PNB MetLife",
      "CMCHIS (Govt Scheme)"
    ],
    "fee": 0,
    "rating": 4.5,
    "reviews": "Processed via AI: Highly recommended for General Medicine",
    "location": {
      "lat": 11.103366725616299,
      "lng": 78.66940982014845
    }
  },
  {
    "id": 46,
    "external_id": "11224",
    "name": "Govt PHC, Nandhivaram, Chengalpattu, TN. ",
    "city": "Chengalpet",
    "specialists": [
      "General Medicine"
    ],
    "insurance": [
      "Star Health",
      "PNB MetLife"
    ],
    "fee": 412,
    "rating": 4.8,
    "reviews": "Processed via AI: Highly recommended for General Medicine",
    "location": {
      "lat": 11.140170436079448,
      "lng": 78.66863184642278
    }
  },
  {
    "id": 47,
    "external_id": "11226",
    "name": "Govt Sanatorium, Chengalpet TN.",
    "city": "Chengalpet",
    "specialists": [
      "General Medicine"
    ],
    "insurance": [
      "Star Health",
      "PNB MetLife",
      "CMCHIS (Govt Scheme)"
    ],
    "fee": 0,
    "rating": 3.8,
    "reviews": "Processed via AI: Highly recommended for General Medicine",
    "location": {
      "lat": 11.17468077993455,
      "lng": 78.65477133183889
    }
  },
  {
    "id": 48,
    "external_id": "11223",
    "name": "Govt.DDWO,Chengalpattu TN. ",
    "city": "Chengalpet",
    "specialists": [
      "General Medicine"
    ],
    "insurance": [
      "Star Health",
      "PNB MetLife"
    ],
    "fee": 339,
    "rating": 3.7,
    "reviews": "Processed via AI: Highly recommended for General Medicine",
    "location": {
      "lat": 11.155790536208166,
      "lng": 78.64100000430292
    }
  },
  {
    "id": 49,
    "external_id": "11241",
    "name": "Govt.PHC St.Thomas mount,Chengalpattu TN.",
    "city": "Chengalpet",
    "specialists": [
      "General Medicine"
    ],
    "insurance": [
      "Star Health",
      "PNB MetLife",
      "CMCHIS (Govt Scheme)"
    ],
    "fee": 0,
    "rating": 4,
    "reviews": "Processed via AI: Highly recommended for General Medicine",
    "location": {
      "lat": 11.16490219364633,
      "lng": 78.61275928922305
    }
  },
  {
    "id": 50,
    "external_id": "11242",
    "name": "Govt.PHC Tiruporur,Chengalpattu TN.",
    "city": "Chengalpet",
    "specialists": [
      "General Medicine"
    ],
    "insurance": [
      "Star Health",
      "PNB MetLife",
      "CMCHIS (Govt Scheme)"
    ],
    "fee": 0,
    "rating": 3.7,
    "reviews": "Processed via AI: Highly recommended for General Medicine",
    "location": {
      "lat": 11.137280709177123,
      "lng": 78.67410978515902
    }
  },
  {
    "id": 51,
    "external_id": "11243",
    "name": "Govt.PHC,Chithamur,idaikalinadu,Chengulpet TN.",
    "city": "Chengalpet",
    "specialists": [
      "General Medicine"
    ],
    "insurance": [
      "Star Health",
      "PNB MetLife",
      "CMCHIS (Govt Scheme)"
    ],
    "fee": 0,
    "rating": 4.6,
    "reviews": "Processed via AI: Highly recommended for General Medicine",
    "location": {
      "lat": 11.096071580625903,
      "lng": 78.66402810426574
    }
  },
  {
    "id": 52,
    "external_id": "11244",
    "name": "Govt.PHC,Tirukalukundram,Sadras,Chengulpet TN.",
    "city": "Chengalpet",
    "specialists": [
      "General Medicine"
    ],
    "insurance": [
      "Star Health",
      "PNB MetLife",
      "CMCHIS (Govt Scheme)"
    ],
    "fee": 0,
    "rating": 3.6,
    "reviews": "Processed via AI: Highly recommended for General Medicine",
    "location": {
      "lat": 11.1035634541529,
      "lng": 78.7038369652082
    }
  },
  {
    "id": 53,
    "external_id": "11234",
    "name": "Govt.UPHC Achirapakkam,Chengalpattu TN.",
    "city": "Chengalpet",
    "specialists": [
      "General Medicine"
    ],
    "insurance": [
      "Star Health",
      "PNB MetLife",
      "CMCHIS (Govt Scheme)"
    ],
    "fee": 0,
    "rating": 3.7,
    "reviews": "Processed via AI: Highly recommended for General Medicine",
    "location": {
      "lat": 11.15349754019484,
      "lng": 78.63616487447312
    }
  },
  {
    "id": 54,
    "external_id": "11235",
    "name": "Govt.UPHC Chunamed,Chengalpattu TN. ",
    "city": "Chengalpet",
    "specialists": [
      "General Medicine"
    ],
    "insurance": [
      "Star Health",
      "PNB MetLife",
      "CMCHIS (Govt Scheme)"
    ],
    "fee": 0,
    "rating": 4.4,
    "reviews": "Processed via AI: Highly recommended for General Medicine",
    "location": {
      "lat": 11.088251162428014,
      "lng": 78.68575397442197
    }
  },
  {
    "id": 55,
    "external_id": "11237",
    "name": "Govt.UPHC Kelambakkam,Chengalpattu TN.",
    "city": "Chengalpet",
    "specialists": [
      "General Medicine"
    ],
    "insurance": [
      "Star Health",
      "PNB MetLife",
      "CMCHIS (Govt Scheme)"
    ],
    "fee": 0,
    "rating": 4.4,
    "reviews": "Processed via AI: Highly recommended for General Medicine",
    "location": {
      "lat": 11.106823609572542,
      "lng": 78.61253296682958
    }
  },
  {
    "id": 56,
    "external_id": "11240",
    "name": "Govt.UPHC Madhuranthagam ,Chengalpattu TN.",
    "city": "Chengalpet",
    "specialists": [
      "General Medicine"
    ],
    "insurance": [
      "Star Health",
      "PNB MetLife",
      "CMCHIS (Govt Scheme)"
    ],
    "fee": 0,
    "rating": 4.3,
    "reviews": "Processed via AI: Highly recommended for General Medicine",
    "location": {
      "lat": 11.12979436926225,
      "lng": 78.68029895548642
    }
  },
  {
    "id": 57,
    "external_id": "11239",
    "name": "Govt.UPHC Medavakkam,Chengalpattu TN.",
    "city": "Chengalpet",
    "specialists": [
      "General Medicine"
    ],
    "insurance": [
      "Star Health",
      "PNB MetLife",
      "CMCHIS (Govt Scheme)"
    ],
    "fee": 0,
    "rating": 4.4,
    "reviews": "Processed via AI: Highly recommended for General Medicine",
    "location": {
      "lat": 11.150696161688138,
      "lng": 78.64043587910284
    }
  },
  {
    "id": 58,
    "external_id": "11238",
    "name": "Govt.UPHC Nandhivaram,Chengalpattu TN. ",
    "city": "Chengalpet",
    "specialists": [
      "General Medicine"
    ],
    "insurance": [
      "Star Health",
      "PNB MetLife",
      "CMCHIS (Govt Scheme)"
    ],
    "fee": 0,
    "rating": 4.5,
    "reviews": "Processed via AI: Highly recommended for General Medicine",
    "location": {
      "lat": 11.083908827678556,
      "lng": 78.67835815185224
    }
  },
  {
    "id": 59,
    "external_id": "11236",
    "name": "Govt.UPHC Pavanjur,Chengalpattu TN.",
    "city": "Chengalpet",
    "specialists": [
      "General Medicine"
    ],
    "insurance": [
      "Star Health",
      "PNB MetLife",
      "CMCHIS (Govt Scheme)"
    ],
    "fee": 0,
    "rating": 4.9,
    "reviews": "Processed via AI: Highly recommended for General Medicine",
    "location": {
      "lat": 11.085125038798926,
      "lng": 78.68172028019573
    }
  },
  {
    "id": 60,
    "external_id": "11245",
    "name": "Govt.UPHC Semmancherry, Chengalpattu TN.  ",
    "city": "Chengalpet",
    "specialists": [
      "General Medicine"
    ],
    "insurance": [
      "Star Health",
      "PNB MetLife",
      "CMCHIS (Govt Scheme)"
    ],
    "fee": 0,
    "rating": 4.3,
    "reviews": "Processed via AI: Highly recommended for General Medicine",
    "location": {
      "lat": 11.160897783867815,
      "lng": 78.62387812141179
    }
  },
  {
    "id": 61,
    "external_id": "11267",
    "name": "Hariharan Diabetes, Chengalpet TN.",
    "city": "Chengalpet",
    "specialists": [
      "General Medicine"
    ],
    "insurance": [
      "Star Health",
      "PNB MetLife"
    ],
    "fee": 451,
    "rating": 4.3,
    "reviews": "Processed via AI: Highly recommended for General Medicine",
    "location": {
      "lat": 11.12503840483414,
      "lng": 78.6978793153147
    }
  },
  {
    "id": 62,
    "external_id": "11255",
    "name": "Hindu Mission Health Services, Chengalpet TN.",
    "city": "Chengalpet",
    "specialists": [
      "General Medicine"
    ],
    "insurance": [
      "Star Health",
      "PNB MetLife"
    ],
    "fee": 719,
    "rating": 4.5,
    "reviews": "Processed via AI: Highly recommended for General Medicine",
    "location": {
      "lat": 11.117780643097825,
      "lng": 78.67453707766717
    }
  },
  {
    "id": 63,
    "external_id": "11256",
    "name": "Hindu Mission Hospital, Chengalpet TN.",
    "city": "Chengalpet",
    "specialists": [
      "General Medicine"
    ],
    "insurance": [
      "Star Health",
      "PNB MetLife"
    ],
    "fee": 305,
    "rating": 3.7,
    "reviews": "Processed via AI: Highly recommended for General Medicine",
    "location": {
      "lat": 11.140605040052739,
      "lng": 78.63943872819651
    }
  },
  {
    "id": 64,
    "external_id": "11291",
    "name": "Jeevan Sumyuktha Hospitals, Chengalpet TN.",
    "city": "Chengalpet",
    "specialists": [
      "General Medicine"
    ],
    "insurance": [
      "Star Health",
      "PNB MetLife"
    ],
    "fee": 375,
    "rating": 4.4,
    "reviews": "Processed via AI: Highly recommended for General Medicine",
    "location": {
      "lat": 11.173732538213477,
      "lng": 78.6591658864023
    }
  },
  {
    "id": 65,
    "external_id": "11296",
    "name": "JJ Hospital, Chengalpet, TN.",
    "city": "Chengalpet",
    "specialists": [
      "General Medicine"
    ],
    "insurance": [
      "Star Health",
      "PNB MetLife"
    ],
    "fee": 594,
    "rating": 4.8,
    "reviews": "Processed via AI: Highly recommended for General Medicine",
    "location": {
      "lat": 11.171171155344751,
      "lng": 78.67300424486297
    }
  },
  {
    "id": 66,
    "external_id": "11287",
    "name": "Jolen Hospital, Chengalpet TN.",
    "city": "Chengalpet",
    "specialists": [
      "General Medicine"
    ],
    "insurance": [
      "Star Health",
      "PNB MetLife"
    ],
    "fee": 418,
    "rating": 4.6,
    "reviews": "Processed via AI: Highly recommended for General Medicine",
    "location": {
      "lat": 11.084917904403335,
      "lng": 78.65922040032675
    }
  },
  {
    "id": 67,
    "external_id": "11292",
    "name": "JSP Hospital Pvt Ltd, Chengalpet TN.",
    "city": "Chengalpet",
    "specialists": [
      "General Medicine"
    ],
    "insurance": [
      "Star Health",
      "PNB MetLife"
    ],
    "fee": 697,
    "rating": 4.5,
    "reviews": "Processed via AI: Highly recommended for General Medicine",
    "location": {
      "lat": 11.17039749838642,
      "lng": 78.64328067283084
    }
  },
  {
    "id": 68,
    "external_id": "11268",
    "name": "Karpaga Vinyaga Institute, Chengalpet,TN.",
    "city": "Chengalpet",
    "specialists": [
      "General Medicine"
    ],
    "insurance": [
      "Star Health",
      "PNB MetLife"
    ],
    "fee": 606,
    "rating": 4.2,
    "reviews": "Processed via AI: Highly recommended for General Medicine",
    "location": {
      "lat": 11.096329058552124,
      "lng": 78.63322533092814
    }
  },
  {
    "id": 69,
    "external_id": "11289",
    "name": "Kasturi Hospital, Tambaram, Chengalpet TN.",
    "city": "Chengalpet",
    "specialists": [
      "General Medicine"
    ],
    "insurance": [
      "Star Health",
      "PNB MetLife"
    ],
    "fee": 699,
    "rating": 4,
    "reviews": "Processed via AI: Highly recommended for General Medicine",
    "location": {
      "lat": 11.094567996553454,
      "lng": 78.67170374302081
    }
  },
  {
    "id": 70,
    "external_id": "11250",
    "name": "LifeCell international Pvt Ltd, Chengalpet DC.",
    "city": "Chengalpet",
    "specialists": [
      "General Medicine"
    ],
    "insurance": [
      "Star Health",
      "PNB MetLife"
    ],
    "fee": 583,
    "rating": 4.3,
    "reviews": "Processed via AI: Highly recommended for General Medicine",
    "location": {
      "lat": 11.104903252632072,
      "lng": 78.6884807671885
    }
  },
  {
    "id": 71,
    "external_id": "11290",
    "name": "Lions Hemodialysis Centre, Chengalpet TN.",
    "city": "Chengalpet",
    "specialists": [
      "Nephrologist"
    ],
    "insurance": [
      "Star Health",
      "PNB MetLife"
    ],
    "fee": 581,
    "rating": 3.6,
    "reviews": "Processed via AI: Highly recommended for Nephrologist",
    "location": {
      "lat": 11.131711606763487,
      "lng": 78.69077504642055
    }
  },
  {
    "id": 72,
    "external_id": "11269",
    "name": "Melmaruvathur Adhiparsakthi Inst, Chengalpet TN.",
    "city": "Chengalpet",
    "specialists": [
      "General Medicine"
    ],
    "insurance": [
      "Star Health",
      "PNB MetLife"
    ],
    "fee": 345,
    "rating": 4,
    "reviews": "Processed via AI: Highly recommended for General Medicine",
    "location": {
      "lat": 11.112769122403584,
      "lng": 78.69375796956032
    }
  },
  {
    "id": 73,
    "external_id": "11279",
    "name": "Melvin Jones Lions Dialysis, Chengalpet TN.",
    "city": "Chengalpet",
    "specialists": [
      "Nephrologist"
    ],
    "insurance": [
      "Star Health",
      "PNB MetLife"
    ],
    "fee": 302,
    "rating": 4.6,
    "reviews": "Processed via AI: Highly recommended for Nephrologist",
    "location": {
      "lat": 11.113869480974095,
      "lng": 78.68189622963477
    }
  },
  {
    "id": 74,
    "external_id": "11247",
    "name": "Mothers Special School, ID,Autism, Chengalpet, TN. ",
    "city": "Chengalpet",
    "specialists": [
      "General Medicine"
    ],
    "insurance": [
      "Star Health",
      "PNB MetLife"
    ],
    "fee": 338,
    "rating": 4,
    "reviews": "Processed via AI: Highly recommended for General Medicine",
    "location": {
      "lat": 11.12072401753557,
      "lng": 78.64885948509212
    }
  },
  {
    "id": 75,
    "external_id": "11286",
    "name": "One Health hospital, Chengalpet TN.",
    "city": "Chengalpet",
    "specialists": [
      "General Medicine"
    ],
    "insurance": [
      "Star Health",
      "PNB MetLife"
    ],
    "fee": 464,
    "rating": 4.1,
    "reviews": "Processed via AI: Highly recommended for General Medicine",
    "location": {
      "lat": 11.169981484850055,
      "lng": 78.67417054216143
    }
  },
  {
    "id": 76,
    "external_id": "11270",
    "name": "Parvathy Ortho Hospital, Chengalpet TN.",
    "city": "Chengalpet",
    "specialists": [
      "Orthopedic Surgeon"
    ],
    "insurance": [
      "Star Health",
      "PNB MetLife"
    ],
    "fee": 788,
    "rating": 4,
    "reviews": "Processed via AI: Highly recommended for Orthopedic Surgeon",
    "location": {
      "lat": 11.167992766154226,
      "lng": 78.6596485851779
    }
  },
  {
    "id": 77,
    "external_id": "11295",
    "name": "RKP Hospital Pvt Ltd., Chengalpet, TN.",
    "city": "Chengalpet",
    "specialists": [
      "General Medicine"
    ],
    "insurance": [
      "Star Health",
      "PNB MetLife"
    ],
    "fee": 535,
    "rating": 3.8,
    "reviews": "Processed via AI: Highly recommended for General Medicine",
    "location": {
      "lat": 11.158463945627593,
      "lng": 78.63639418732235
    }
  },
  {
    "id": 78,
    "external_id": "11298",
    "name": "Rotary club Maraimalainagar, Chengalpattu, TN.",
    "city": "Chengalpet",
    "specialists": [
      "General Medicine"
    ],
    "insurance": [
      "Star Health",
      "PNB MetLife"
    ],
    "fee": 750,
    "rating": 4.1,
    "reviews": "Processed via AI: Highly recommended for General Medicine",
    "location": {
      "lat": 11.08815660595576,
      "lng": 78.64334645742143
    }
  },
  {
    "id": 79,
    "external_id": "11282",
    "name": "Sai Fertility Centre and Hospital,Chengalpet TN.",
    "city": "Chengalpet",
    "specialists": [
      "ENT Specialist"
    ],
    "insurance": [
      "Star Health",
      "PNB MetLife"
    ],
    "fee": 432,
    "rating": 4.6,
    "reviews": "Processed via AI: Highly recommended for ENT Specialist",
    "location": {
      "lat": 11.115708979316569,
      "lng": 78.68516004938868
    }
  },
  {
    "id": 80,
    "external_id": "11257",
    "name": "Sankara Eye Hospital, Chengalpet TN.",
    "city": "Chengalpet",
    "specialists": [
      "Ophthalmologist"
    ],
    "insurance": [
      "Star Health",
      "PNB MetLife"
    ],
    "fee": 586,
    "rating": 4.7,
    "reviews": "Processed via AI: Highly recommended for Ophthalmologist",
    "location": {
      "lat": 11.137790729675075,
      "lng": 78.64715838687944
    }
  },
  {
    "id": 81,
    "external_id": "11275",
    "name": "Shadithya Health Care, Chengalpet TN.",
    "city": "Chengalpet",
    "specialists": [
      "General Medicine"
    ],
    "insurance": [
      "Star Health",
      "PNB MetLife"
    ],
    "fee": 635,
    "rating": 4.7,
    "reviews": "Processed via AI: Highly recommended for General Medicine",
    "location": {
      "lat": 11.126014601310587,
      "lng": 78.64264491599471
    }
  },
  {
    "id": 82,
    "external_id": "11261",
    "name": "Shri Sathya Sai Medical College, Chengalpet TN.",
    "city": "Chengalpet",
    "specialists": [
      "General Medicine"
    ],
    "insurance": [
      "Star Health",
      "PNB MetLife"
    ],
    "fee": 716,
    "rating": 4.3,
    "reviews": "Processed via AI: Highly recommended for General Medicine",
    "location": {
      "lat": 11.092190492792545,
      "lng": 78.7007591131323
    }
  },
  {
    "id": 83,
    "external_id": "11252",
    "name": "Shrimpex Biotech Services Pvt Ltd, Chengalpet, DC.",
    "city": "Chengalpet",
    "specialists": [
      "General Medicine"
    ],
    "insurance": [
      "Star Health",
      "PNB MetLife"
    ],
    "fee": 537,
    "rating": 4.3,
    "reviews": "Processed via AI: Highly recommended for General Medicine",
    "location": {
      "lat": 11.128973824931077,
      "lng": 78.70058280067035
    }
  },
  {
    "id": 84,
    "external_id": "11262",
    "name": "Sree Renga Nursing Home, Chengalpet TN.",
    "city": "Chengalpet",
    "specialists": [
      "General Medicine"
    ],
    "insurance": [
      "Star Health",
      "PNB MetLife"
    ],
    "fee": 430,
    "rating": 5,
    "reviews": "Processed via AI: Highly recommended for General Medicine",
    "location": {
      "lat": 11.124928167804644,
      "lng": 78.70502973738563
    }
  },
  {
    "id": 85,
    "external_id": "11263",
    "name": "Sri Balaji Medical Coll and Hosp, Chengalpet TN.",
    "city": "Chengalpet",
    "specialists": [
      "General Medicine"
    ],
    "insurance": [
      "Star Health",
      "PNB MetLife"
    ],
    "fee": 555,
    "rating": 4.3,
    "reviews": "Processed via AI: Highly recommended for General Medicine",
    "location": {
      "lat": 11.148136124726815,
      "lng": 78.62127339097607
    }
  },
  {
    "id": 86,
    "external_id": "11272",
    "name": "Sri Chakara Multi Hospital, Chengalpet TN.",
    "city": "Chengalpet",
    "specialists": [
      "General Physician",
      "Cardiologist",
      "Orthopedic Surgeon"
    ],
    "insurance": [
      "Star Health",
      "PNB MetLife"
    ],
    "fee": 463,
    "rating": 3.6,
    "reviews": "Processed via AI: Highly recommended for General Physician",
    "location": {
      "lat": 11.083563814640799,
      "lng": 78.70226618464508
    }
  },
  {
    "id": 87,
    "external_id": "11297",
    "name": "Sri Kauvery Medical Care Ltd, Chengalpattu, TN.",
    "city": "Chengalpet",
    "specialists": [
      "General Medicine"
    ],
    "insurance": [
      "Star Health",
      "PNB MetLife"
    ],
    "fee": 445,
    "rating": 4.7,
    "reviews": "Processed via AI: Highly recommended for General Medicine",
    "location": {
      "lat": 11.136900050856722,
      "lng": 78.67125448148735
    }
  },
  {
    "id": 88,
    "external_id": "11294",
    "name": "Sringeri Sharada Equitas Hospital, Chengalpet, TN.",
    "city": "Chengalpet",
    "specialists": [
      "General Medicine"
    ],
    "insurance": [
      "Star Health",
      "PNB MetLife"
    ],
    "fee": 644,
    "rating": 4,
    "reviews": "Processed via AI: Highly recommended for General Medicine",
    "location": {
      "lat": 11.094049268075608,
      "lng": 78.63177135965152
    }
  },
  {
    "id": 89,
    "external_id": "11264",
    "name": "SRM Medical College Hospital, Chengalpet TN.",
    "city": "Chengalpet",
    "specialists": [
      "General Medicine"
    ],
    "insurance": [
      "Star Health",
      "PNB MetLife"
    ],
    "fee": 753,
    "rating": 4.1,
    "reviews": "Processed via AI: Highly recommended for General Medicine",
    "location": {
      "lat": 11.10178711568199,
      "lng": 78.60963027913422
    }
  },
  {
    "id": 90,
    "external_id": "11273",
    "name": "St. Thomas Hospital, Chengalpet TN.",
    "city": "Chengalpet",
    "specialists": [
      "General Medicine"
    ],
    "insurance": [
      "Star Health",
      "PNB MetLife"
    ],
    "fee": 700,
    "rating": 4.5,
    "reviews": "Processed via AI: Highly recommended for General Medicine",
    "location": {
      "lat": 11.089533976853074,
      "lng": 78.61953062189026
    }
  },
  {
    "id": 91,
    "external_id": "11258",
    "name": "Sugam Hospital, Chengalpet TN.",
    "city": "Chengalpet",
    "specialists": [
      "General Medicine"
    ],
    "insurance": [
      "Star Health",
      "PNB MetLife"
    ],
    "fee": 434,
    "rating": 4.7,
    "reviews": "Processed via AI: Highly recommended for General Medicine",
    "location": {
      "lat": 11.129474612382083,
      "lng": 78.69338185716327
    }
  },
  {
    "id": 92,
    "external_id": "11265",
    "name": "Tagore Medical Coll And Hosp, Chengalpet TN.",
    "city": "Chengalpet",
    "specialists": [
      "General Medicine"
    ],
    "insurance": [
      "Star Health",
      "PNB MetLife"
    ],
    "fee": 723,
    "rating": 4.1,
    "reviews": "Processed via AI: Highly recommended for General Medicine",
    "location": {
      "lat": 11.113928325026128,
      "lng": 78.64443861136753
    }
  },
  {
    "id": 93,
    "external_id": "11288",
    "name": "Tagore Specialty Hospital, Chengalpet TN.",
    "city": "Chengalpet",
    "specialists": [
      "General Medicine"
    ],
    "insurance": [
      "Star Health",
      "PNB MetLife"
    ],
    "fee": 544,
    "rating": 4.6,
    "reviews": "Processed via AI: Highly recommended for General Medicine",
    "location": {
      "lat": 11.153930345050808,
      "lng": 78.66364807061689
    }
  },
  {
    "id": 94,
    "external_id": "11285",
    "name": "Unittas Multi Speciality Hospital,chenglapattu TN.",
    "city": "Chengalpet",
    "specialists": [
      "General Physician",
      "Cardiologist",
      "Orthopedic Surgeon"
    ],
    "insurance": [
      "Star Health",
      "PNB MetLife"
    ],
    "fee": 435,
    "rating": 4.6,
    "reviews": "Processed via AI: Highly recommended for General Physician",
    "location": {
      "lat": 11.109740261351092,
      "lng": 78.62932861795355
    }
  },
  {
    "id": 95,
    "external_id": "11299",
    "name": "Vasan Eye Care Hospital, Chengalpattu, TN.",
    "city": "Chengalpet",
    "specialists": [
      "Ophthalmologist"
    ],
    "insurance": [
      "Star Health",
      "PNB MetLife"
    ],
    "fee": 503,
    "rating": 3.8,
    "reviews": "Processed via AI: Highly recommended for Ophthalmologist",
    "location": {
      "lat": 11.145047319996573,
      "lng": 78.6630421226745
    }
  },
  {
    "id": 96,
    "external_id": "11362",
    "name": "Aarthi Scans kilpauk, Chennai DC.",
    "city": "Chennai",
    "specialists": [
      "Radiologist"
    ],
    "insurance": [
      "Star Health",
      "PNB MetLife"
    ],
    "fee": 777,
    "rating": 3.8,
    "reviews": "Processed via AI: Highly recommended for Radiologist",
    "location": {
      "lat": 13.034123612423386,
      "lng": 80.29955664578644
    }
  },
  {
    "id": 97,
    "external_id": "11360",
    "name": "Aarthi Scans, Alwarpet, Chennai DC.",
    "city": "Chennai",
    "specialists": [
      "Radiologist"
    ],
    "insurance": [
      "Star Health",
      "PNB MetLife"
    ],
    "fee": 409,
    "rating": 4.4,
    "reviews": "Processed via AI: Highly recommended for Radiologist",
    "location": {
      "lat": 13.128478360629225,
      "lng": 80.2590065900971
    }
  },
  {
    "id": 98,
    "external_id": "11377",
    "name": "Aarthi Scans, Vadapalani,Chennai DC.",
    "city": "Chennai",
    "specialists": [
      "Radiologist"
    ],
    "insurance": [
      "Star Health",
      "PNB MetLife"
    ],
    "fee": 377,
    "rating": 3.8,
    "reviews": "Processed via AI: Highly recommended for Radiologist",
    "location": {
      "lat": 13.089898395893979,
      "lng": 80.31158998913475
    }
  },
  {
    "id": 99,
    "external_id": "11363",
    "name": "Aarthi Scans,Tondiarpet Chennai DC.",
    "city": "Chennai",
    "specialists": [
      "Radiologist"
    ],
    "insurance": [
      "Star Health",
      "PNB MetLife"
    ],
    "fee": 645,
    "rating": 4.6,
    "reviews": "Processed via AI: Highly recommended for Radiologist",
    "location": {
      "lat": 13.048623347880532,
      "lng": 80.26515148025095
    }
  },
  {
    "id": 100,
    "external_id": "11461",
    "name": "Adambakkam Sudar Hospital, Chennai TN.",
    "city": "Chennai",
    "specialists": [
      "General Medicine"
    ],
    "insurance": [
      "Star Health",
      "PNB MetLife"
    ],
    "fee": 502,
    "rating": 3.7,
    "reviews": "Processed via AI: Highly recommended for General Medicine",
    "location": {
      "lat": 13.065951466206974,
      "lng": 80.22273018870267
    }
  },
  {
    "id": 101,
    "external_id": "11366",
    "name": "Advanced Nuclear Research,Chennai DC",
    "city": "Chennai",
    "specialists": [
      "ENT Specialist"
    ],
    "insurance": [
      "Star Health",
      "PNB MetLife"
    ],
    "fee": 497,
    "rating": 4.8,
    "reviews": "Processed via AI: Highly recommended for ENT Specialist",
    "location": {
      "lat": 13.122392313765896,
      "lng": 80.26248406702172
    }
  },
  {
    "id": 102,
    "external_id": "11436",
    "name": "Adyar PM Hospital,Adyar,Chennai TN.",
    "city": "Chennai",
    "specialists": [
      "General Medicine"
    ],
    "insurance": [
      "Star Health",
      "PNB MetLife"
    ],
    "fee": 438,
    "rating": 3.8,
    "reviews": "Processed via AI: Highly recommended for General Medicine",
    "location": {
      "lat": 13.078617558078745,
      "lng": 80.28499794071338
    }
  },
  {
    "id": 103,
    "external_id": "11444",
    "name": "Amma Hospital, Chennai TN",
    "city": "Chennai",
    "specialists": [
      "General Medicine"
    ],
    "insurance": [
      "Star Health",
      "PNB MetLife"
    ],
    "fee": 499,
    "rating": 4.6,
    "reviews": "Processed via AI: Highly recommended for General Medicine",
    "location": {
      "lat": 13.125169282122473,
      "lng": 80.2247360550211
    }
  },
  {
    "id": 104,
    "external_id": "11454",
    "name": "AN-NOOR Eye hospital,Chennai TN.",
    "city": "Chennai",
    "specialists": [
      "Ophthalmologist"
    ],
    "insurance": [
      "Star Health",
      "PNB MetLife"
    ],
    "fee": 598,
    "rating": 4.5,
    "reviews": "Processed via AI: Highly recommended for Ophthalmologist",
    "location": {
      "lat": 13.039662450899073,
      "lng": 80.28551004308332
    }
  },
  {
    "id": 105,
    "external_id": "11480",
    "name": "Anchibai Hemraj Katariya Dialysis, Chennai TN. ",
    "city": "Chennai",
    "specialists": [
      "Nephrologist"
    ],
    "insurance": [
      "Star Health",
      "PNB MetLife"
    ],
    "fee": 615,
    "rating": 4.1,
    "reviews": "Processed via AI: Highly recommended for Nephrologist",
    "location": {
      "lat": 13.08909567221593,
      "lng": 80.32050844010011
    }
  },
  {
    "id": 106,
    "external_id": "11373",
    "name": "Anderson Diagnostic Services,Nungamb , Chennai DC.",
    "city": "Chennai",
    "specialists": [
      "General Medicine"
    ],
    "insurance": [
      "Star Health",
      "PNB MetLife"
    ],
    "fee": 645,
    "rating": 4.3,
    "reviews": "Processed via AI: Highly recommended for General Medicine",
    "location": {
      "lat": 13.0345195959941,
      "lng": 80.25906154962007
    }
  },
  {
    "id": 107,
    "external_id": "11376",
    "name": "Anderson Diagnostic sevices, Purasai, Chennai DC.",
    "city": "Chennai",
    "specialists": [
      "General Medicine"
    ],
    "insurance": [
      "Star Health",
      "PNB MetLife"
    ],
    "fee": 764,
    "rating": 4.1,
    "reviews": "Processed via AI: Highly recommended for General Medicine",
    "location": {
      "lat": 13.119164594457319,
      "lng": 80.24515678025689
    }
  },
  {
    "id": 108,
    "external_id": "11442",
    "name": "Annai multi speciality,Virugambakkam,Chennai TN",
    "city": "Chennai",
    "specialists": [
      "General Physician",
      "Cardiologist",
      "Orthopedic Surgeon"
    ],
    "insurance": [
      "Star Health",
      "PNB MetLife"
    ],
    "fee": 612,
    "rating": 4.8,
    "reviews": "Processed via AI: Highly recommended for General Physician",
    "location": {
      "lat": 13.084413538714033,
      "lng": 80.24110694739029
    }
  },
  {
    "id": 109,
    "external_id": "11390",
    "name": "Apollo Childrens Hospital,Chennai TN.",
    "city": "Chennai",
    "specialists": [
      "Gynecologist",
      "Pediatrician"
    ],
    "insurance": [
      "Star Health",
      "PNB MetLife"
    ],
    "fee": 527,
    "rating": 3.8,
    "reviews": "Processed via AI: Highly recommended for Gynecologist",
    "location": {
      "lat": 13.078540919681469,
      "lng": 80.24574218734544
    }
  },
  {
    "id": 110,
    "external_id": "11392",
    "name": "Apollo Greams,Chennai TN.",
    "city": "Chennai",
    "specialists": [
      "General Medicine"
    ],
    "insurance": [
      "Star Health",
      "PNB MetLife"
    ],
    "fee": 334,
    "rating": 4.4,
    "reviews": "Processed via AI: Highly recommended for General Medicine",
    "location": {
      "lat": 13.11795391351392,
      "lng": 80.22900774280056
    }
  },
  {
    "id": 111,
    "external_id": "11394",
    "name": "APOLLO SPECIALTY HOSPITAL, Chennai TN.",
    "city": "Chennai",
    "specialists": [
      "General Medicine"
    ],
    "insurance": [
      "Star Health",
      "PNB MetLife"
    ],
    "fee": 634,
    "rating": 3.7,
    "reviews": "Processed via AI: Highly recommended for General Medicine",
    "location": {
      "lat": 13.119589354547296,
      "lng": 80.23359686450132
    }
  },
  {
    "id": 112,
    "external_id": "11439",
    "name": "Apollo Spectra Hospital, R.A Puram, Chennai TN.",
    "city": "Chennai",
    "specialists": [
      "General Medicine"
    ],
    "insurance": [
      "Star Health",
      "PNB MetLife"
    ],
    "fee": 396,
    "rating": 4.5,
    "reviews": "Processed via AI: Highly recommended for General Medicine",
    "location": {
      "lat": 13.053198713575199,
      "lng": 80.22286709472938
    }
  },
  {
    "id": 113,
    "external_id": "11416",
    "name": "Appasamy Hospitals,Chennai TN.",
    "city": "Chennai",
    "specialists": [
      "General Medicine"
    ],
    "insurance": [
      "Star Health",
      "PNB MetLife"
    ],
    "fee": 337,
    "rating": 4.1,
    "reviews": "Processed via AI: Highly recommended for General Medicine",
    "location": {
      "lat": 13.070887550086068,
      "lng": 80.25825756247288
    }
  },
  {
    "id": 114,
    "external_id": "11401",
    "name": "TN.",
    "city": "Chennai",
    "specialists": [
      "General Medicine"
    ],
    "insurance": [
      "Star Health",
      "PNB MetLife"
    ],
    "fee": 410,
    "rating": 3.8,
    "reviews": "Processed via AI: Highly recommended for General Medicine",
    "location": {
      "lat": 13.096815844438181,
      "lng": 80.28942047668843
    }
  },
  {
    "id": 115,
    "external_id": "11378",
    "name": "Balaji Medical Centre, Chennai DC.",
    "city": "Chennai",
    "specialists": [
      "ENT Specialist"
    ],
    "insurance": [
      "Star Health",
      "PNB MetLife"
    ],
    "fee": 534,
    "rating": 3.5,
    "reviews": "Processed via AI: Highly recommended for ENT Specialist",
    "location": {
      "lat": 13.066577101811765,
      "lng": 80.30500007297442
    }
  },
  {
    "id": 116,
    "external_id": "11372",
    "name": "Bharat Scans Royapettah, Chennai DC.",
    "city": "Chennai",
    "specialists": [
      "Radiologist"
    ],
    "insurance": [
      "Star Health",
      "PNB MetLife"
    ],
    "fee": 702,
    "rating": 3.9,
    "reviews": "Processed via AI: Highly recommended for Radiologist",
    "location": {
      "lat": 13.038059822062339,
      "lng": 80.26278832261573
    }
  },
  {
    "id": 117,
    "external_id": "11405",
    "name": "Bharathirajaa Speciality Hospital, Chennai TN.",
    "city": "Chennai",
    "specialists": [
      "General Medicine"
    ],
    "insurance": [
      "Star Health",
      "PNB MetLife"
    ],
    "fee": 317,
    "rating": 3.5,
    "reviews": "Processed via AI: Highly recommended for General Medicine",
    "location": {
      "lat": 13.091698112724602,
      "lng": 80.25842611365945
    }
  },
  {
    "id": 118,
    "external_id": "11407",
    "name": "Billroth Hospitals Shenoy Nagar, Chennai TN.",
    "city": "Chennai",
    "specialists": [
      "General Medicine"
    ],
    "insurance": [
      "Star Health",
      "PNB MetLife"
    ],
    "fee": 404,
    "rating": 3.9,
    "reviews": "Processed via AI: Highly recommended for General Medicine",
    "location": {
      "lat": 13.129753026548961,
      "lng": 80.23300910893659
    }
  },
  {
    "id": 119,
    "external_id": "11412",
    "name": "Billroth,Chennai TN.",
    "city": "Chennai",
    "specialists": [
      "General Medicine"
    ],
    "insurance": [
      "Star Health",
      "PNB MetLife"
    ],
    "fee": 502,
    "rating": 3.8,
    "reviews": "Processed via AI: Highly recommended for General Medicine",
    "location": {
      "lat": 13.064553000552241,
      "lng": 80.22844572473204
    }
  },
  {
    "id": 120,
    "external_id": "11398",
    "name": "Bloom Health Care, Chennai TN.",
    "city": "Chennai",
    "specialists": [
      "General Medicine"
    ],
    "insurance": [
      "Star Health",
      "PNB MetLife"
    ],
    "fee": 400,
    "rating": 4.7,
    "reviews": "Processed via AI: Highly recommended for General Medicine",
    "location": {
      "lat": 13.04206724378527,
      "lng": 80.2603117015745
    }
  },
  {
    "id": 121,
    "external_id": "11397",
    "name": "Cancer Institute Adyar,Chennai TN.",
    "city": "Chennai",
    "specialists": [
      "Oncologist"
    ],
    "insurance": [
      "Star Health",
      "PNB MetLife"
    ],
    "fee": 522,
    "rating": 3.8,
    "reviews": "Processed via AI: Highly recommended for Oncologist",
    "location": {
      "lat": 13.088006364456053,
      "lng": 80.26681656956673
    }
  },
  {
    "id": 122,
    "external_id": "11306",
    "name": "CCH, Adyar, Chennai TN.",
    "city": "Chennai",
    "specialists": [
      "General Medicine"
    ],
    "insurance": [
      "Star Health",
      "PNB MetLife"
    ],
    "fee": 593,
    "rating": 4.7,
    "reviews": "Processed via AI: Highly recommended for General Medicine",
    "location": {
      "lat": 13.085776347743959,
      "lng": 80.28052756819088
    }
  },
  {
    "id": 123,
    "external_id": "11303",
    "name": "CCH, Ayanavaram, Chennai TN.",
    "city": "Chennai",
    "specialists": [
      "General Medicine"
    ],
    "insurance": [
      "Star Health",
      "PNB MetLife"
    ],
    "fee": 723,
    "rating": 4.4,
    "reviews": "Processed via AI: Highly recommended for General Medicine",
    "location": {
      "lat": 13.11688394992717,
      "lng": 80.24531601680141
    }
  },
  {
    "id": 124,
    "external_id": "11305",
    "name": "CCH, Kodambakkam, Chennai TN.",
    "city": "Chennai",
    "specialists": [
      "General Medicine"
    ],
    "insurance": [
      "Star Health",
      "PNB MetLife"
    ],
    "fee": 518,
    "rating": 4,
    "reviews": "Processed via AI: Highly recommended for General Medicine",
    "location": {
      "lat": 13.084944100710738,
      "lng": 80.25318160203595
    }
  },
  {
    "id": 125,
    "external_id": "11311",
    "name": "CCH, Nungambakkam, Chennai TN.",
    "city": "Chennai",
    "specialists": [
      "General Medicine"
    ],
    "insurance": [
      "Star Health",
      "PNB MetLife"
    ],
    "fee": 586,
    "rating": 4.7,
    "reviews": "Processed via AI: Highly recommended for General Medicine",
    "location": {
      "lat": 13.042911386491376,
      "lng": 80.22347136897521
    }
  },
  {
    "id": 126,
    "external_id": "11312",
    "name": "CCH, Perambur, Chennai TN.",
    "city": "Chennai",
    "specialists": [
      "General Medicine"
    ],
    "insurance": [
      "Star Health",
      "PNB MetLife"
    ],
    "fee": 420,
    "rating": 4.2,
    "reviews": "Processed via AI: Highly recommended for General Medicine",
    "location": {
      "lat": 13.046909490368218,
      "lng": 80.29706706995155
    }
  },
  {
    "id": 127,
    "external_id": "11307",
    "name": "CCH, Perumalpet, Chennai TN.",
    "city": "Chennai",
    "specialists": [
      "General Medicine"
    ],
    "insurance": [
      "Star Health",
      "PNB MetLife"
    ],
    "fee": 493,
    "rating": 4.2,
    "reviews": "Processed via AI: Highly recommended for General Medicine",
    "location": {
      "lat": 13.035879338767137,
      "lng": 80.23484266068961
    }
  },
  {
    "id": 128,
    "external_id": "11301",
    "name": "CCH, Royapuram, Chennai TN.",
    "city": "Chennai",
    "specialists": [
      "General Medicine"
    ],
    "insurance": [
      "Star Health",
      "PNB MetLife"
    ],
    "fee": 628,
    "rating": 3.6,
    "reviews": "Processed via AI: Highly recommended for General Medicine",
    "location": {
      "lat": 13.058875836764818,
      "lng": 80.2298756478971
    }
  },
  {
    "id": 129,
    "external_id": "11309",
    "name": "CCH, Saidapet, Chennai TN.",
    "city": "Chennai",
    "specialists": [
      "General Medicine"
    ],
    "insurance": [
      "Star Health",
      "PNB MetLife"
    ],
    "fee": 691,
    "rating": 4.9,
    "reviews": "Processed via AI: Highly recommended for General Medicine",
    "location": {
      "lat": 13.059255418755773,
      "lng": 80.31229596829066
    }
  },
  {
    "id": 130,
    "external_id": "11308",
    "name": "CCH, Shenoynagar, Chennai TN.",
    "city": "Chennai",
    "specialists": [
      "General Medicine"
    ],
    "insurance": [
      "Star Health",
      "PNB MetLife"
    ],
    "fee": 780,
    "rating": 4.9,
    "reviews": "Processed via AI: Highly recommended for General Medicine",
    "location": {
      "lat": 13.080012024485281,
      "lng": 80.22716003024922
    }
  },
  {
    "id": 131,
    "external_id": "11304",
    "name": "CCH, Teynampet, Chennai TN.",
    "city": "Chennai",
    "specialists": [
      "General Medicine"
    ],
    "insurance": [
      "Star Health",
      "PNB MetLife"
    ],
    "fee": 638,
    "rating": 4.7,
    "reviews": "Processed via AI: Highly recommended for General Medicine",
    "location": {
      "lat": 13.090722040540046,
      "lng": 80.31720793717423
    }
  },
  {
    "id": 132,
    "external_id": "11302",
    "name": "CCH, TVK Nagar, Chennai TN.",
    "city": "Chennai",
    "specialists": [
      "General Medicine"
    ],
    "insurance": [
      "Star Health",
      "PNB MetLife"
    ],
    "fee": 683,
    "rating": 4.7,
    "reviews": "Processed via AI: Highly recommended for General Medicine",
    "location": {
      "lat": 13.098577708885367,
      "lng": 80.23489604160659
    }
  },
  {
    "id": 133,
    "external_id": "11300",
    "name": "CCH,Tondiarpet, Chennai TN.",
    "city": "Chennai",
    "specialists": [
      "General Medicine"
    ],
    "insurance": [
      "Star Health",
      "PNB MetLife"
    ],
    "fee": 727,
    "rating": 3.5,
    "reviews": "Processed via AI: Highly recommended for General Medicine",
    "location": {
      "lat": 13.085555522053182,
      "lng": 80.31486398668929
    }
  },
  {
    "id": 134,
    "external_id": "11471",
    "name": "Chennai  Health Foundation Hospital, Chennai, TN.",
    "city": "CHENNAI",
    "specialists": [
      "General Medicine"
    ],
    "insurance": [
      "Star Health",
      "PNB MetLife"
    ],
    "fee": 482,
    "rating": 4,
    "reviews": "Processed via AI: Highly recommended for General Medicine",
    "location": {
      "lat": 11.165091180820305,
      "lng": 78.64485412184227
    }
  },
  {
    "id": 135,
    "external_id": "11462",
    "name": "Chennai Breast Centre, Chennai TN.",
    "city": "Chennai",
    "specialists": [
      "ENT Specialist"
    ],
    "insurance": [
      "Star Health",
      "PNB MetLife"
    ],
    "fee": 573,
    "rating": 3.6,
    "reviews": "Processed via AI: Highly recommended for ENT Specialist",
    "location": {
      "lat": 13.121889695911959,
      "lng": 80.2344584512106
    }
  },
  {
    "id": 136,
    "external_id": "11429",
    "name": "Chennai National Hospital, Chennai TN.",
    "city": "Chennai",
    "specialists": [
      "General Medicine"
    ],
    "insurance": [
      "Star Health",
      "PNB MetLife"
    ],
    "fee": 758,
    "rating": 3.8,
    "reviews": "Processed via AI: Highly recommended for General Medicine",
    "location": {
      "lat": 13.119247736785116,
      "lng": 80.24942282988067
    }
  },
  {
    "id": 137,
    "external_id": "11450",
    "name": "Chennai Orthopedic Centre, Chennai TN.",
    "city": "Chennai",
    "specialists": [
      "Orthopedic Surgeon"
    ],
    "insurance": [
      "Star Health",
      "PNB MetLife"
    ],
    "fee": 423,
    "rating": 3.6,
    "reviews": "Processed via AI: Highly recommended for Orthopedic Surgeon",
    "location": {
      "lat": 13.064913323584687,
      "lng": 80.23517899708112
    }
  },
  {
    "id": 138,
    "external_id": "13090",
    "name": "Chennai",
    "city": "GOI",
    "specialists": [
      "General Medicine"
    ],
    "insurance": [
      "Star Health",
      "PNB MetLife",
      "CMCHIS (Govt Scheme)"
    ],
    "fee": 0,
    "rating": 4.3,
    "reviews": "Processed via AI: Highly recommended for General Medicine",
    "location": {
      "lat": 11.146052816848801,
      "lng": 78.61248285358822
    }
  },
  {
    "id": 139,
    "external_id": "11310",
    "name": "Communicable Disease Hos,Tondiarpet, Chennai TN.",
    "city": "Chennai",
    "specialists": [
      "General Medicine"
    ],
    "insurance": [
      "Star Health",
      "PNB MetLife"
    ],
    "fee": 376,
    "rating": 4.3,
    "reviews": "Processed via AI: Highly recommended for General Medicine",
    "location": {
      "lat": 13.03488641211518,
      "lng": 80.3156119026811
    }
  },
  {
    "id": 140,
    "external_id": "11391",
    "name": "CSI KALYANI GENERAL HOSPITAL, Chennai TN.",
    "city": "Chennai",
    "specialists": [
      "General Physician",
      "Cardiologist",
      "Orthopedic Surgeon"
    ],
    "insurance": [
      "Star Health",
      "PNB MetLife"
    ],
    "fee": 742,
    "rating": 4.1,
    "reviews": "Processed via AI: Highly recommended for General Physician",
    "location": {
      "lat": 13.096182594772353,
      "lng": 80.28033035494707
    }
  },
  {
    "id": 141,
    "external_id": "11319",
    "name": "DEIC ,Chennai TN.",
    "city": "Chennai",
    "specialists": [
      "General Medicine"
    ],
    "insurance": [
      "Star Health",
      "PNB MetLife"
    ],
    "fee": 724,
    "rating": 3.7,
    "reviews": "Processed via AI: Highly recommended for General Medicine",
    "location": {
      "lat": 13.089276087200206,
      "lng": 80.25142459108845
    }
  },
  {
    "id": 142,
    "external_id": "11467",
    "name": "Devraj Manickchand Maternity Hospital, Chennai,TN.",
    "city": "CHENNAI",
    "specialists": [
      "Gynecologist",
      "Pediatrician"
    ],
    "insurance": [
      "Star Health",
      "PNB MetLife"
    ],
    "fee": 463,
    "rating": 4.6,
    "reviews": "Processed via AI: Highly recommended for Gynecologist",
    "location": {
      "lat": 11.155942928635623,
      "lng": 78.69476727197724
    }
  },
  {
    "id": 143,
    "external_id": "11317",
    "name": "District Diff. Abled Welfare Off,North Chennai TN.",
    "city": "Chennai",
    "specialists": [
      "General Medicine"
    ],
    "insurance": [
      "Star Health",
      "PNB MetLife"
    ],
    "fee": 538,
    "rating": 4.8,
    "reviews": "Processed via AI: Highly recommended for General Medicine",
    "location": {
      "lat": 13.120171427993352,
      "lng": 80.25441545306683
    }
  },
  {
    "id": 144,
    "external_id": "11315",
    "name": "District Diff. abled welfare office,Chennai TN.",
    "city": "Chennai",
    "specialists": [
      "General Medicine"
    ],
    "insurance": [
      "Star Health",
      "PNB MetLife"
    ],
    "fee": 326,
    "rating": 3.6,
    "reviews": "Processed via AI: Highly recommended for General Medicine",
    "location": {
      "lat": 13.050644210887956,
      "lng": 80.2595144563921
    }
  },
  {
    "id": 145,
    "external_id": "11374",
    "name": "DOC Medical Services PVT LTD,Chennai DC.",
    "city": "Chennai",
    "specialists": [
      "General Medicine"
    ],
    "insurance": [
      "Star Health",
      "PNB MetLife"
    ],
    "fee": 588,
    "rating": 4.1,
    "reviews": "Processed via AI: Highly recommended for General Medicine",
    "location": {
      "lat": 13.127626022324293,
      "lng": 80.31642318938984
    }
  },
  {
    "id": 146,
    "external_id": "11406",
    "name": "Dr Mehtas Hospitals Chetpet,Chennai TN.",
    "city": "Chennai",
    "specialists": [
      "General Medicine"
    ],
    "insurance": [
      "Star Health",
      "PNB MetLife"
    ],
    "fee": 545,
    "rating": 4.2,
    "reviews": "Processed via AI: Highly recommended for General Medicine",
    "location": {
      "lat": 13.132382116867092,
      "lng": 80.22196260030097
    }
  },
  {
    "id": 147,
    "external_id": "11404",
    "name": "Dr Rai Memorial Cancer Institute,Chennai TN.",
    "city": "Chennai",
    "specialists": [
      "Oncologist"
    ],
    "insurance": [
      "Star Health",
      "PNB MetLife"
    ],
    "fee": 444,
    "rating": 3.6,
    "reviews": "Processed via AI: Highly recommended for Oncologist",
    "location": {
      "lat": 13.069845571135296,
      "lng": 80.29910266149535
    }
  },
  {
    "id": 148,
    "external_id": "11411",
    "name": "Dr. Agarwals Eye Hospital,Chennai TN.",
    "city": "Chennai",
    "specialists": [
      "Ophthalmologist"
    ],
    "insurance": [
      "Star Health",
      "PNB MetLife"
    ],
    "fee": 362,
    "rating": 4.8,
    "reviews": "Processed via AI: Highly recommended for Ophthalmologist",
    "location": {
      "lat": 13.126378482263712,
      "lng": 80.23541609790497
    }
  },
  {
    "id": 149,
    "external_id": "11418",
    "name": "Faith Multispecialty Hospital,Chennai TN.",
    "city": "Chennai",
    "specialists": [
      "General Physician",
      "Cardiologist",
      "Orthopedic Surgeon"
    ],
    "insurance": [
      "Star Health",
      "PNB MetLife"
    ],
    "fee": 413,
    "rating": 4.8,
    "reviews": "Processed via AI: Highly recommended for General Physician",
    "location": {
      "lat": 13.054491300257643,
      "lng": 80.31734596425247
    }
  },
  {
    "id": 150,
    "external_id": "11456",
    "name": "FIRM Hospitals, Chennai TN.",
    "city": "Chennai",
    "specialists": [
      "General Medicine"
    ],
    "insurance": [
      "Star Health",
      "PNB MetLife"
    ],
    "fee": 427,
    "rating": 3.7,
    "reviews": "Processed via AI: Highly recommended for General Medicine",
    "location": {
      "lat": 13.049731189994063,
      "lng": 80.24094851804053
    }
  },
  {
    "id": 151,
    "external_id": "11445",
    "name": "Fortis Health Care ltd,Vadapalani Chennai TN.",
    "city": "Chennai",
    "specialists": [
      "General Medicine"
    ],
    "insurance": [
      "Star Health",
      "PNB MetLife"
    ],
    "fee": 763,
    "rating": 4.5,
    "reviews": "Processed via AI: Highly recommended for General Medicine",
    "location": {
      "lat": 13.072364411861443,
      "lng": 80.2421740209975
    }
  },
  {
    "id": 152,
    "external_id": "11446",
    "name": "Fortis Health Care ltd,Vadapalani Chennai TN.",
    "city": "Chennai",
    "specialists": [
      "General Medicine"
    ],
    "insurance": [
      "Star Health",
      "PNB MetLife"
    ],
    "fee": 362,
    "rating": 4,
    "reviews": "Processed via AI: Highly recommended for General Medicine",
    "location": {
      "lat": 13.095284672898849,
      "lng": 80.2833871786015
    }
  },
  {
    "id": 153,
    "external_id": "11375",
    "name": "Gemini Scans Pvt Ltd,Vadapalani,Chennai DC.",
    "city": "Chennai",
    "specialists": [
      "Radiologist"
    ],
    "insurance": [
      "Star Health",
      "PNB MetLife"
    ],
    "fee": 357,
    "rating": 3.5,
    "reviews": "Processed via AI: Highly recommended for Radiologist",
    "location": {
      "lat": 13.033553784101715,
      "lng": 80.24317987498226
    }
  },
  {
    "id": 154,
    "external_id": "11459",
    "name": "GKM Hospital, Purasaiwakam, Chennai TN.",
    "city": "Chennai",
    "specialists": [
      "General Medicine"
    ],
    "insurance": [
      "Star Health",
      "PNB MetLife"
    ],
    "fee": 637,
    "rating": 4.7,
    "reviews": "Processed via AI: Highly recommended for General Medicine",
    "location": {
      "lat": 13.109594496126677,
      "lng": 80.27377842792211
    }
  },
  {
    "id": 155,
    "external_id": "11334",
    "name": "Government Dental College, Chennai TN.",
    "city": "Chennai",
    "specialists": [
      "Dentist"
    ],
    "insurance": [
      "Star Health",
      "PNB MetLife",
      "CMCHIS (Govt Scheme)"
    ],
    "fee": 0,
    "rating": 4.7,
    "reviews": "Processed via AI: Highly recommended for Dentist",
    "location": {
      "lat": 13.050713337978523,
      "lng": 80.27205359019996
    }
  },
  {
    "id": 156,
    "external_id": "11338",
    "name": "Government Peripheral Hosp,KK Nagar,Chennai TN.",
    "city": "Chennai",
    "specialists": [
      "ENT Specialist"
    ],
    "insurance": [
      "Star Health",
      "PNB MetLife",
      "CMCHIS (Govt Scheme)"
    ],
    "fee": 0,
    "rating": 4.3,
    "reviews": "Processed via AI: Highly recommended for ENT Specialist",
    "location": {
      "lat": 13.112623959023637,
      "lng": 80.27376807283494
    }
  },
  {
    "id": 157,
    "external_id": "11337",
    "name": "Government Peripheral Hosp,Periyar Ngr,Chennai TN.",
    "city": "Chennai",
    "specialists": [
      "ENT Specialist"
    ],
    "insurance": [
      "Star Health",
      "PNB MetLife",
      "CMCHIS (Govt Scheme)"
    ],
    "fee": 0,
    "rating": 4.1,
    "reviews": "Processed via AI: Highly recommended for ENT Specialist",
    "location": {
      "lat": 13.090875606954835,
      "lng": 80.2710305625856
    }
  },
  {
    "id": 158,
    "external_id": "11328",
    "name": "Government Peripheral Hosp,Tondiarpet,Chennai TN.",
    "city": "Chennai",
    "specialists": [
      "ENT Specialist"
    ],
    "insurance": [
      "Star Health",
      "PNB MetLife",
      "CMCHIS (Govt Scheme)"
    ],
    "fee": 0,
    "rating": 3.5,
    "reviews": "Processed via AI: Highly recommended for ENT Specialist",
    "location": {
      "lat": 13.067294973704207,
      "lng": 80.23509987566959
    }
  },
  {
    "id": 159,
    "external_id": "11351",
    "name": "Govt Alandur UPHC, Chennai TN.",
    "city": "Chennai",
    "specialists": [
      "General Medicine"
    ],
    "insurance": [
      "Star Health",
      "PNB MetLife",
      "CMCHIS (Govt Scheme)"
    ],
    "fee": 0,
    "rating": 4.7,
    "reviews": "Processed via AI: Highly recommended for General Medicine",
    "location": {
      "lat": 13.0845187720412,
      "lng": 80.2519154979958
    }
  },
  {
    "id": 160,
    "external_id": "11347",
    "name": "Govt Ayanavaram UCHC, Chennai TN.",
    "city": "Chennai",
    "specialists": [
      "General Medicine"
    ],
    "insurance": [
      "Star Health",
      "PNB MetLife",
      "CMCHIS (Govt Scheme)"
    ],
    "fee": 0,
    "rating": 4.8,
    "reviews": "Processed via AI: Highly recommended for General Medicine",
    "location": {
      "lat": 13.064691360440875,
      "lng": 80.25290004810617
    }
  },
  {
    "id": 161,
    "external_id": "11343",
    "name": "Govt CHC Adayar,  Chennai TN.",
    "city": "Chennai",
    "specialists": [
      "General Medicine"
    ],
    "insurance": [
      "Star Health",
      "PNB MetLife",
      "CMCHIS (Govt Scheme)"
    ],
    "fee": 0,
    "rating": 4.3,
    "reviews": "Processed via AI: Highly recommended for General Medicine",
    "location": {
      "lat": 13.107372153255035,
      "lng": 80.22976066287389
    }
  },
  {
    "id": 162,
    "external_id": "11344",
    "name": "Govt CHC RK Nagar,  Chennai TN.",
    "city": "Chennai",
    "specialists": [
      "General Medicine"
    ],
    "insurance": [
      "Star Health",
      "PNB MetLife",
      "CMCHIS (Govt Scheme)"
    ],
    "fee": 0,
    "rating": 4.2,
    "reviews": "Processed via AI: Highly recommended for General Medicine",
    "location": {
      "lat": 13.041082541515836,
      "lng": 80.23319769351441
    }
  },
  {
    "id": 163,
    "external_id": "11341",
    "name": "Govt Hospital,Ayanavaram ESI, Chennai TN. ",
    "city": "Chennai",
    "specialists": [
      "General Medicine"
    ],
    "insurance": [
      "Star Health",
      "PNB MetLife",
      "CMCHIS (Govt Scheme)"
    ],
    "fee": 0,
    "rating": 5,
    "reviews": "Processed via AI: Highly recommended for General Medicine",
    "location": {
      "lat": 13.11065201102701,
      "lng": 80.3103595280819
    }
  },
  {
    "id": 164,
    "external_id": "11353",
    "name": "Govt INJAMBAKKAM UCHC, Chennai TN.",
    "city": "Chennai",
    "specialists": [
      "General Medicine"
    ],
    "insurance": [
      "Star Health",
      "PNB MetLife",
      "CMCHIS (Govt Scheme)"
    ],
    "fee": 0,
    "rating": 4.6,
    "reviews": "Processed via AI: Highly recommended for General Medicine",
    "location": {
      "lat": 13.03826115043841,
      "lng": 80.27667946003686
    }
  },
  {
    "id": 165,
    "external_id": "11339",
    "name": "Govt Institute of mental health, Chennai TN.",
    "city": "Chennai",
    "specialists": [
      "ENT Specialist"
    ],
    "insurance": [
      "Star Health",
      "PNB MetLife",
      "CMCHIS (Govt Scheme)"
    ],
    "fee": 0,
    "rating": 4.9,
    "reviews": "Processed via AI: Highly recommended for ENT Specialist",
    "location": {
      "lat": 13.047704027720052,
      "lng": 80.27226214374102
    }
  },
  {
    "id": 166,
    "external_id": "11333",
    "name": "Govt Kalaignar Centenary Spr Spl Hosp, Chennai TN.",
    "city": "Chennai",
    "specialists": [
      "ENT Specialist"
    ],
    "insurance": [
      "Star Health",
      "PNB MetLife",
      "CMCHIS (Govt Scheme)"
    ],
    "fee": 0,
    "rating": 4.2,
    "reviews": "Processed via AI: Highly recommended for ENT Specialist",
    "location": {
      "lat": 13.097007103480548,
      "lng": 80.31917752658437
    }
  },
  {
    "id": 167,
    "external_id": "11348",
    "name": "Govt Manjambakkam UCHC, Chennai TN.",
    "city": "Chennai",
    "specialists": [
      "General Medicine"
    ],
    "insurance": [
      "Star Health",
      "PNB MetLife",
      "CMCHIS (Govt Scheme)"
    ],
    "fee": 0,
    "rating": 4.5,
    "reviews": "Processed via AI: Highly recommended for General Medicine",
    "location": {
      "lat": 13.042086904121295,
      "lng": 80.3058051413822
    }
  },
  {
    "id": 168,
    "external_id": "11358",
    "name": "Govt Mirsahibpet UCHC, Chennai TN.",
    "city": "Chennai",
    "specialists": [
      "General Medicine"
    ],
    "insurance": [
      "Star Health",
      "PNB MetLife",
      "CMCHIS (Govt Scheme)"
    ],
    "fee": 0,
    "rating": 4.8,
    "reviews": "Processed via AI: Highly recommended for General Medicine",
    "location": {
      "lat": 13.106813807212752,
      "lng": 80.2898292962023
    }
  },
  {
    "id": 169,
    "external_id": "11331",
    "name": "Govt Opthomology Hospital,Chennai TN.",
    "city": "Chennai",
    "specialists": [
      "General Medicine"
    ],
    "insurance": [
      "Star Health",
      "PNB MetLife",
      "CMCHIS (Govt Scheme)"
    ],
    "fee": 0,
    "rating": 3.9,
    "reviews": "Processed via AI: Highly recommended for General Medicine",
    "location": {
      "lat": 13.119086556066733,
      "lng": 80.2669304627165
    }
  },
  {
    "id": 170,
    "external_id": "11355",
    "name": "Govt PADI UCHC, Chennai TN.",
    "city": "Chennai",
    "specialists": [
      "General Medicine"
    ],
    "insurance": [
      "Star Health",
      "PNB MetLife",
      "CMCHIS (Govt Scheme)"
    ],
    "fee": 0,
    "rating": 4.3,
    "reviews": "Processed via AI: Highly recommended for General Medicine",
    "location": {
      "lat": 13.060150567095869,
      "lng": 80.26080955576623
    }
  },
  {
    "id": 171,
    "external_id": "11340",
    "name": "Govt Peripheral Hospital, Saidapet,Chennai TN.",
    "city": "Chennai",
    "specialists": [
      "General Medicine"
    ],
    "insurance": [
      "Star Health",
      "PNB MetLife",
      "CMCHIS (Govt Scheme)"
    ],
    "fee": 0,
    "rating": 4.5,
    "reviews": "Processed via AI: Highly recommended for General Medicine",
    "location": {
      "lat": 13.041826388787184,
      "lng": 80.28448999050812
    }
  },
  {
    "id": 172,
    "external_id": "11350",
    "name": "Govt Perungudi UCHC, Chennai TN.",
    "city": "Chennai",
    "specialists": [
      "General Medicine"
    ],
    "insurance": [
      "Star Health",
      "PNB MetLife",
      "CMCHIS (Govt Scheme)"
    ],
    "fee": 0,
    "rating": 4.3,
    "reviews": "Processed via AI: Highly recommended for General Medicine",
    "location": {
      "lat": 13.097781437864707,
      "lng": 80.24257850695483
    }
  },
  {
    "id": 173,
    "external_id": "11354",
    "name": "Govt PORUR UCHC, Chennai TN.",
    "city": "Chennai",
    "specialists": [
      "General Medicine"
    ],
    "insurance": [
      "Star Health",
      "PNB MetLife",
      "CMCHIS (Govt Scheme)"
    ],
    "fee": 0,
    "rating": 4.7,
    "reviews": "Processed via AI: Highly recommended for General Medicine",
    "location": {
      "lat": 13.105871830669711,
      "lng": 80.2315697195193
    }
  },
  {
    "id": 174,
    "external_id": "11345",
    "name": "Govt Pulianthope CHC,Chennai TN.",
    "city": "Chennai",
    "specialists": [
      "General Medicine"
    ],
    "insurance": [
      "Star Health",
      "PNB MetLife",
      "CMCHIS (Govt Scheme)"
    ],
    "fee": 0,
    "rating": 4.4,
    "reviews": "Processed via AI: Highly recommended for General Medicine",
    "location": {
      "lat": 13.12003137820878,
      "lng": 80.31881340431357
    }
  },
  {
    "id": 175,
    "external_id": "11349",
    "name": "Govt Puzhal CHC, Chennai TN.",
    "city": "Chennai",
    "specialists": [
      "General Medicine"
    ],
    "insurance": [
      "Star Health",
      "PNB MetLife",
      "CMCHIS (Govt Scheme)"
    ],
    "fee": 0,
    "rating": 4.4,
    "reviews": "Processed via AI: Highly recommended for General Medicine",
    "location": {
      "lat": 13.10539741118626,
      "lng": 80.26096210631839
    }
  },
  {
    "id": 176,
    "external_id": "11357",
    "name": "Govt Sanjeevarayanpet UCHC, Chennai TN.",
    "city": "Chennai",
    "specialists": [
      "General Medicine"
    ],
    "insurance": [
      "Star Health",
      "PNB MetLife",
      "CMCHIS (Govt Scheme)"
    ],
    "fee": 0,
    "rating": 3.6,
    "reviews": "Processed via AI: Highly recommended for General Medicine",
    "location": {
      "lat": 13.119933903160822,
      "lng": 80.27337693755089
    }
  },
  {
    "id": 177,
    "external_id": "11356",
    "name": "Govt Thiruvottiyur UCHC, Chennai TN.",
    "city": "Chennai",
    "specialists": [
      "General Medicine"
    ],
    "insurance": [
      "Star Health",
      "PNB MetLife",
      "CMCHIS (Govt Scheme)"
    ],
    "fee": 0,
    "rating": 4,
    "reviews": "Processed via AI: Highly recommended for General Medicine",
    "location": {
      "lat": 13.071263322922265,
      "lng": 80.23058982182076
    }
  },
  {
    "id": 178,
    "external_id": "11352",
    "name": "Govt VADAPALANI UCHC, Chennai TN.",
    "city": "Chennai",
    "specialists": [
      "General Medicine"
    ],
    "insurance": [
      "Star Health",
      "PNB MetLife",
      "CMCHIS (Govt Scheme)"
    ],
    "fee": 0,
    "rating": 3.8,
    "reviews": "Processed via AI: Highly recommended for General Medicine",
    "location": {
      "lat": 13.08058290538297,
      "lng": 80.22404261854125
    }
  },
  {
    "id": 179,
    "external_id": "11314",
    "name": "Govt Vyasarpadi UPHC TANKER Foundation,Chennai TN.",
    "city": "Chennai",
    "specialists": [
      "General Medicine"
    ],
    "insurance": [
      "Star Health",
      "PNB MetLife"
    ],
    "fee": 552,
    "rating": 4.7,
    "reviews": "Processed via AI: Highly recommended for General Medicine",
    "location": {
      "lat": 13.066784039291727,
      "lng": 80.28833535551529
    }
  },
  {
    "id": 180,
    "external_id": "11332",
    "name": "Govt. Omandhurar Medical coll and hosp,Chennai TN.",
    "city": "Chennai",
    "specialists": [
      "General Medicine"
    ],
    "insurance": [
      "Star Health",
      "PNB MetLife",
      "CMCHIS (Govt Scheme)"
    ],
    "fee": 0,
    "rating": 4,
    "reviews": "Processed via AI: Highly recommended for General Medicine",
    "location": {
      "lat": 13.051233974794819,
      "lng": 80.26962284285437
    }
  },
  {
    "id": 181,
    "external_id": "11318",
    "name": "Govt. OSTC, Kannagi Nagar, Chennai, TN.",
    "city": "Chennai",
    "specialists": [
      "General Medicine"
    ],
    "insurance": [
      "Star Health",
      "PNB MetLife"
    ],
    "fee": 519,
    "rating": 4.6,
    "reviews": "Processed via AI: Highly recommended for General Medicine",
    "location": {
      "lat": 13.03977102067741,
      "lng": 80.31769178569607
    }
  },
  {
    "id": 182,
    "external_id": "11329",
    "name": "Govt. Royapettah Hospital, Royapetta,Chennai TN.",
    "city": "Chennai",
    "specialists": [
      "General Medicine"
    ],
    "insurance": [
      "Star Health",
      "PNB MetLife",
      "CMCHIS (Govt Scheme)"
    ],
    "fee": 0,
    "rating": 4,
    "reviews": "Processed via AI: Highly recommended for General Medicine",
    "location": {
      "lat": 13.075008529093544,
      "lng": 80.26522905237175
    }
  },
  {
    "id": 183,
    "external_id": "11322",
    "name": "Govt. Stanley Medical College Hospital,Chennai TN.",
    "city": "Chennai",
    "specialists": [
      "General Medicine"
    ],
    "insurance": [
      "Star Health",
      "PNB MetLife",
      "CMCHIS (Govt Scheme)"
    ],
    "fee": 0,
    "rating": 3.7,
    "reviews": "Processed via AI: Highly recommended for General Medicine",
    "location": {
      "lat": 13.046818767131477,
      "lng": 80.26938044900123
    }
  },
  {
    "id": 184,
    "external_id": "11323",
    "name": "Govt.Kilpauk Medical CollegeHospitalChennai,TN.",
    "city": "Chennai",
    "specialists": [
      "General Medicine"
    ],
    "insurance": [
      "Star Health",
      "PNB MetLife",
      "CMCHIS (Govt Scheme)"
    ],
    "fee": 0,
    "rating": 5,
    "reviews": "Processed via AI: Highly recommended for General Medicine",
    "location": {
      "lat": 13.054170754237974,
      "lng": 80.29667771688652
    }
  },
  {
    "id": 185,
    "external_id": "11321",
    "name": "Govt.Super Speciality Hospital,Omandur Chennai TN.",
    "city": "Chennai",
    "specialists": [
      "General Medicine"
    ],
    "insurance": [
      "Star Health",
      "PNB MetLife",
      "CMCHIS (Govt Scheme)"
    ],
    "fee": 0,
    "rating": 3.8,
    "reviews": "Processed via AI: Highly recommended for General Medicine",
    "location": {
      "lat": 13.04736163544679,
      "lng": 80.2216614213969
    }
  },
  {
    "id": 186,
    "external_id": "11336",
    "name": "GOVT.TB HOSPITAL OTTERI , CHENNAI TN.",
    "city": "Chennai",
    "specialists": [
      "General Medicine"
    ],
    "insurance": [
      "Star Health",
      "PNB MetLife",
      "CMCHIS (Govt Scheme)"
    ],
    "fee": 0,
    "rating": 4.8,
    "reviews": "Processed via AI: Highly recommended for General Medicine",
    "location": {
      "lat": 13.08487733011618,
      "lng": 80.24866460342753
    }
  },
  {
    "id": 187,
    "external_id": "11342",
    "name": "Govt.UPHC Kondithop ,Chennai TN.",
    "city": "Chennai",
    "specialists": [
      "General Medicine"
    ],
    "insurance": [
      "Star Health",
      "PNB MetLife",
      "CMCHIS (Govt Scheme)"
    ],
    "fee": 0,
    "rating": 3.8,
    "reviews": "Processed via AI: Highly recommended for General Medicine",
    "location": {
      "lat": 13.036211412081833,
      "lng": 80.29816747850954
    }
  },
  {
    "id": 188,
    "external_id": "11381",
    "name": "Healthcare global enterprises Ltd, Chennai DC. ",
    "city": "Chennai",
    "specialists": [
      "ENT Specialist"
    ],
    "insurance": [
      "Star Health",
      "PNB MetLife"
    ],
    "fee": 535,
    "rating": 3.5,
    "reviews": "Processed via AI: Highly recommended for ENT Specialist",
    "location": {
      "lat": 13.092204525895713,
      "lng": 80.30711152903615
    }
  },
  {
    "id": 189,
    "external_id": "11443",
    "name": "Hycare Super Speciality Hospital, Chennai TN.",
    "city": "Chennai",
    "specialists": [
      "General Medicine"
    ],
    "insurance": [
      "Star Health",
      "PNB MetLife"
    ],
    "fee": 786,
    "rating": 4.7,
    "reviews": "Processed via AI: Highly recommended for General Medicine",
    "location": {
      "lat": 13.037298933053414,
      "lng": 80.28194506682324
    }
  },
  {
    "id": 190,
    "external_id": "11326",
    "name": "ICH,Egmore,Chennai TN.",
    "city": "Chennai",
    "specialists": [
      "General Medicine"
    ],
    "insurance": [
      "Star Health",
      "PNB MetLife",
      "CMCHIS (Govt Scheme)"
    ],
    "fee": 0,
    "rating": 3.8,
    "reviews": "Processed via AI: Highly recommended for General Medicine",
    "location": {
      "lat": 13.055859313983067,
      "lng": 80.24607374091656
    }
  },
  {
    "id": 191,
    "external_id": "11325",
    "name": "IOG,Egmore,Chennai TN.",
    "city": "Chennai",
    "specialists": [
      "General Medicine"
    ],
    "insurance": [
      "Star Health",
      "PNB MetLife",
      "CMCHIS (Govt Scheme)"
    ],
    "fee": 0,
    "rating": 4.4,
    "reviews": "Processed via AI: Highly recommended for General Medicine",
    "location": {
      "lat": 13.130592243355784,
      "lng": 80.22803158423277
    }
  },
  {
    "id": 192,
    "external_id": "11452",
    "name": "Iswarya Fertility, Adyar, Chennai TN.",
    "city": "Chennai",
    "specialists": [
      "General Medicine"
    ],
    "insurance": [
      "Star Health",
      "PNB MetLife"
    ],
    "fee": 461,
    "rating": 3.8,
    "reviews": "Processed via AI: Highly recommended for General Medicine",
    "location": {
      "lat": 13.098794900799083,
      "lng": 80.28706625053128
    }
  },
  {
    "id": 193,
    "external_id": "11379",
    "name": "Jeenomics Laboratory Private Ltd, Chennai DC.",
    "city": "Chennai",
    "specialists": [
      "General Medicine"
    ],
    "insurance": [
      "Star Health",
      "PNB MetLife"
    ],
    "fee": 774,
    "rating": 4.9,
    "reviews": "Processed via AI: Highly recommended for General Medicine",
    "location": {
      "lat": 13.100262947126499,
      "lng": 80.31948443792452
    }
  },
  {
    "id": 194,
    "external_id": "11371",
    "name": "Jeevan Stem Cell Foundation, Chennai DC.",
    "city": "Chennai",
    "specialists": [
      "General Medicine"
    ],
    "insurance": [
      "Star Health",
      "PNB MetLife"
    ],
    "fee": 481,
    "rating": 3.8,
    "reviews": "Processed via AI: Highly recommended for General Medicine",
    "location": {
      "lat": 13.057794261788828,
      "lng": 80.30598556125236
    }
  },
  {
    "id": 195,
    "external_id": "11438",
    "name": "Kanchi Kamakoti Child Trust Hospital ,Chennai TN.",
    "city": "Chennai",
    "specialists": [
      "Gynecologist",
      "Pediatrician"
    ],
    "insurance": [
      "Star Health",
      "PNB MetLife"
    ],
    "fee": 781,
    "rating": 4.7,
    "reviews": "Processed via AI: Highly recommended for Gynecologist",
    "location": {
      "lat": 13.059340620045228,
      "lng": 80.24689208323662
    }
  },
  {
    "id": 196,
    "external_id": "11400",
    "name": "Kauvery Hospital Chennai,TN.",
    "city": "Chennai",
    "specialists": [
      "General Medicine"
    ],
    "insurance": [
      "Star Health",
      "PNB MetLife"
    ],
    "fee": 346,
    "rating": 4.2,
    "reviews": "Processed via AI: Highly recommended for General Medicine",
    "location": {
      "lat": 13.049577676000286,
      "lng": 80.2474934399905
    }
  },
  {
    "id": 197,
    "external_id": "11466",
    "name": "Kauvery Hospital, Vadapalani, Chennai, TN.",
    "city": "Chennai",
    "specialists": [
      "General Medicine"
    ],
    "insurance": [
      "Star Health",
      "PNB MetLife"
    ],
    "fee": 563,
    "rating": 5,
    "reviews": "Processed via AI: Highly recommended for General Medicine",
    "location": {
      "lat": 13.113839679340698,
      "lng": 80.27167290519694
    }
  },
  {
    "id": 198,
    "external_id": "11478",
    "name": "Kewalchand Mohanabai Dialysis Centr, Chennai TN.",
    "city": "Chennai",
    "specialists": [
      "Nephrologist"
    ],
    "insurance": [
      "Star Health",
      "PNB MetLife"
    ],
    "fee": 442,
    "rating": 4.4,
    "reviews": "Processed via AI: Highly recommended for Nephrologist",
    "location": {
      "lat": 13.12997316519953,
      "lng": 80.23002912921427
    }
  },
  {
    "id": 199,
    "external_id": "11324",
    "name": "KGH,Chennai TN.",
    "city": "Chennai",
    "specialists": [
      "General Medicine"
    ],
    "insurance": [
      "Star Health",
      "PNB MetLife",
      "CMCHIS (Govt Scheme)"
    ],
    "fee": 0,
    "rating": 4.6,
    "reviews": "Processed via AI: Highly recommended for General Medicine",
    "location": {
      "lat": 13.05141309249532,
      "lng": 80.28216850794801
    }
  },
  {
    "id": 200,
    "external_id": "11479",
    "name": "Khivraj Chordia Memorial Dialysis, Chennai TN. ",
    "city": "Chennai",
    "specialists": [
      "Nephrologist"
    ],
    "insurance": [
      "Star Health",
      "PNB MetLife"
    ],
    "fee": 441,
    "rating": 4.1,
    "reviews": "Processed via AI: Highly recommended for Nephrologist",
    "location": {
      "lat": 13.045774743859663,
      "lng": 80.2659914348238
    }
  },
  {
    "id": 201,
    "external_id": "11316",
    "name": "KK Nagar Rehabilitation Centre,DDAWO,Chennai TN.",
    "city": "Chennai",
    "specialists": [
      "ENT Specialist"
    ],
    "insurance": [
      "Star Health",
      "PNB MetLife"
    ],
    "fee": 312,
    "rating": 3.7,
    "reviews": "Processed via AI: Highly recommended for ENT Specialist",
    "location": {
      "lat": 13.109648116090549,
      "lng": 80.29656540397285
    }
  },
  {
    "id": 202,
    "external_id": "11409",
    "name": "KKR ENT Hospital And Institute, Chennai TN.",
    "city": "Chennai",
    "specialists": [
      "ENT Specialist"
    ],
    "insurance": [
      "Star Health",
      "PNB MetLife"
    ],
    "fee": 717,
    "rating": 3.8,
    "reviews": "Processed via AI: Highly recommended for ENT Specialist",
    "location": {
      "lat": 13.0363256691671,
      "lng": 80.2738172237187
    }
  },
  {
    "id": 203,
    "external_id": "11458",
    "name": "KL Hospital, Neelangarai, Chennai TN.",
    "city": "Chennai",
    "specialists": [
      "General Medicine"
    ],
    "insurance": [
      "Star Health",
      "PNB MetLife"
    ],
    "fee": 311,
    "rating": 3.7,
    "reviews": "Processed via AI: Highly recommended for General Medicine",
    "location": {
      "lat": 13.08656814355642,
      "lng": 80.2993867436562
    }
  },
  {
    "id": 204,
    "external_id": "11463",
    "name": "Kolathur Dialysis and Medical Center, Chennai TN.",
    "city": "Chennai",
    "specialists": [
      "Nephrologist"
    ],
    "insurance": [
      "Star Health",
      "PNB MetLife"
    ],
    "fee": 718,
    "rating": 4.5,
    "reviews": "Processed via AI: Highly recommended for Nephrologist",
    "location": {
      "lat": 13.035809647828245,
      "lng": 80.25871973229754
    }
  },
  {
    "id": 205,
    "external_id": "11415",
    "name": "Kumaran Hospital Kilpauk, Chennai TN.",
    "city": "Chennai",
    "specialists": [
      "General Medicine"
    ],
    "insurance": [
      "Star Health",
      "PNB MetLife"
    ],
    "fee": 605,
    "rating": 4.8,
    "reviews": "Processed via AI: Highly recommended for General Medicine",
    "location": {
      "lat": 13.107627589364503,
      "lng": 80.27234173335837
    }
  },
  {
    "id": 206,
    "external_id": "11430",
    "name": "Laksha Hospital,Chennai TN.",
    "city": "Chennai",
    "specialists": [
      "General Medicine"
    ],
    "insurance": [
      "Star Health",
      "PNB MetLife"
    ],
    "fee": 701,
    "rating": 4.1,
    "reviews": "Processed via AI: Highly recommended for General Medicine",
    "location": {
      "lat": 13.102937407653178,
      "lng": 80.2674213172259
    }
  },
  {
    "id": 207,
    "external_id": "11380",
    "name": "Lamfer Healthcare Private Ltd, Chennai DC.",
    "city": "Chennai",
    "specialists": [
      "General Medicine"
    ],
    "insurance": [
      "Star Health",
      "PNB MetLife"
    ],
    "fee": 794,
    "rating": 4.6,
    "reviews": "Processed via AI: Highly recommended for General Medicine",
    "location": {
      "lat": 13.048500327721777,
      "lng": 80.23108701953076
    }
  },
  {
    "id": 208,
    "external_id": "11361",
    "name": "Liberty High Scans, Alwarpet, Chennai DC.",
    "city": "Chennai",
    "specialists": [
      "Radiologist"
    ],
    "insurance": [
      "Star Health",
      "PNB MetLife"
    ],
    "fee": 786,
    "rating": 4.5,
    "reviews": "Processed via AI: Highly recommended for Radiologist",
    "location": {
      "lat": 13.070192741297271,
      "lng": 80.31263646975512
    }
  },
  {
    "id": 209,
    "external_id": "11428",
    "name": "Lifeline Multispeciality Hospital, Chennai TN.",
    "city": "Chennai",
    "specialists": [
      "General Physician",
      "Cardiologist",
      "Orthopedic Surgeon"
    ],
    "insurance": [
      "Star Health",
      "PNB MetLife"
    ],
    "fee": 704,
    "rating": 4.3,
    "reviews": "Processed via AI: Highly recommended for General Physician",
    "location": {
      "lat": 13.131558245269964,
      "lng": 80.30959389860328
    }
  },
  {
    "id": 210,
    "external_id": "11424",
    "name": "M R Hospital,Chennai TN.",
    "city": "Chennai",
    "specialists": [
      "General Medicine"
    ],
    "insurance": [
      "Star Health",
      "PNB MetLife"
    ],
    "fee": 603,
    "rating": 4.4,
    "reviews": "Processed via AI: Highly recommended for General Medicine",
    "location": {
      "lat": 13.065270649280414,
      "lng": 80.2593562315232
    }
  },
  {
    "id": 211,
    "external_id": "11422",
    "name": "M.N Eye Hospital,Chennai TN.",
    "city": "Chennai",
    "specialists": [
      "Ophthalmologist"
    ],
    "insurance": [
      "Star Health",
      "PNB MetLife"
    ],
    "fee": 720,
    "rating": 3.7,
    "reviews": "Processed via AI: Highly recommended for Ophthalmologist",
    "location": {
      "lat": 13.061845613798765,
      "lng": 80.32006459285886
    }
  },
  {
    "id": 212,
    "external_id": "11359",
    "name": "TN.",
    "city": "Chennai",
    "specialists": [
      "General Medicine"
    ],
    "insurance": [
      "Star Health",
      "PNB MetLife"
    ],
    "fee": 659,
    "rating": 4.5,
    "reviews": "Processed via AI: Highly recommended for General Medicine",
    "location": {
      "lat": 13.039166125058035,
      "lng": 80.29981177871888
    }
  },
  {
    "id": 213,
    "external_id": "11396",
    "name": "Madras ENT Research Foundation,Chennai TN.",
    "city": "Chennai",
    "specialists": [
      "ENT Specialist"
    ],
    "insurance": [
      "Star Health",
      "PNB MetLife"
    ],
    "fee": 773,
    "rating": 3.7,
    "reviews": "Processed via AI: Highly recommended for ENT Specialist",
    "location": {
      "lat": 13.122581014040314,
      "lng": 80.2337756075677
    }
  },
  {
    "id": 214,
    "external_id": "11330",
    "name": "Madras Medical College,Chennai TN.",
    "city": "Chennai",
    "specialists": [
      "General Medicine"
    ],
    "insurance": [
      "Star Health",
      "PNB MetLife",
      "CMCHIS (Govt Scheme)"
    ],
    "fee": 0,
    "rating": 3.8,
    "reviews": "Processed via AI: Highly recommended for General Medicine",
    "location": {
      "lat": 13.108344327139294,
      "lng": 80.27253028456916
    }
  },
  {
    "id": 215,
    "external_id": "11370",
    "name": "Madras Scans And Labs, Chennai DC.",
    "city": "Chennai",
    "specialists": [
      "Radiologist"
    ],
    "insurance": [
      "Star Health",
      "PNB MetLife"
    ],
    "fee": 531,
    "rating": 3.6,
    "reviews": "Processed via AI: Highly recommended for Radiologist",
    "location": {
      "lat": 13.10592328128967,
      "lng": 80.28013921900998
    }
  },
  {
    "id": 216,
    "external_id": "11364",
    "name": "Med All ,Kilpauk,Chennai DC.",
    "city": "Chennai",
    "specialists": [
      "General Medicine"
    ],
    "insurance": [
      "Star Health",
      "PNB MetLife"
    ],
    "fee": 416,
    "rating": 4.7,
    "reviews": "Processed via AI: Highly recommended for General Medicine",
    "location": {
      "lat": 13.122036604356635,
      "lng": 80.26477128750831
    }
  },
  {
    "id": 217,
    "external_id": "11423",
    "name": "Medical Research Foundation,Chennai TN.",
    "city": "Chennai",
    "specialists": [
      "ENT Specialist"
    ],
    "insurance": [
      "Star Health",
      "PNB MetLife"
    ],
    "fee": 672,
    "rating": 4.1,
    "reviews": "Processed via AI: Highly recommended for ENT Specialist",
    "location": {
      "lat": 13.104208208152466,
      "lng": 80.25495207329429
    }
  },
  {
    "id": 218,
    "external_id": "11472",
    "name": "Medway Heart Institute, Chennai, TN.",
    "city": "CHENNAI",
    "specialists": [
      "ENT Specialist"
    ],
    "insurance": [
      "Star Health",
      "PNB MetLife"
    ],
    "fee": 614,
    "rating": 4.6,
    "reviews": "Processed via AI: Highly recommended for ENT Specialist",
    "location": {
      "lat": 11.083150215155419,
      "lng": 78.623554458711
    }
  },