[
  {
    "id": 1,
    "external_id": "13126",
    "name": "Thiruvallur",
    "city": "Private",
    "specialists": [
      "General Medicine"
    ],
    "insurance": [
      "Star Health",
      "PNB MetLife"
    ],
    "fee": 653,
    "rating": 4.3,
    "reviews": "Processed via AI: Highly recommended for General Medicine",
    "location": {
      "lat": 11.172229822595407,
      "lng": 78.68111075803776
    }
  },
  {
    "id": 2,
    "external_id": "11219",
    "name": "A.S Imaging Centre Pvt Ltd, Ariyalur TN.",
    "city": "Ariyalur",
    "specialists": [
      "Radiologist"
    ],
    "insurance": [
      "Star Health",
      "PNB MetLife"
    ],
    "fee": 587,
    "rating": 4.2,
    "reviews": "Processed via AI: Highly recommended for Radiologist",
    "location": {
      "lat": 11.134259524850844,
      "lng": 79.10812433305311
    }
  },
  {
    "id": 3,
    "external_id": "11220",
    "name": "Ariyalur Golden Hospital Pvt.Ltd, Ariyalur TN.",
    "city": "Ariyalur",
    "specialists": [
      "General Medicine"
    ],
    "insurance": [
      "Star Health",
      "PNB MetLife"
    ],
    "fee": 771,
    "rating": 3.5,
    "reviews": "Processed via AI: Highly recommended for General Medicine",
    "location": {
      "lat": 11.101068603766942,
      "lng": 79.04604870804455
    }
  },
  {
    "id": 4,
    "external_id": "11207",
    "name": "DEIC , Ariyalur TN.",
    "city": "Ariyalur",
    "specialists": [
      "General Medicine"
    ],
    "insurance": [
      "Star Health",
      "PNB MetLife"
    ],
    "fee": 521,
    "rating": 4,
    "reviews": "Processed via AI: Highly recommended for General Medicine",
    "location": {
      "lat": 11.180801821701372,
      "lng": 79.10913874470442
    }
  },
  {
    "id": 5,
    "external_id": "11206",
    "name": "District Diff. abled welfare office,Ariyalur TN.",
    "city": "Ariyalur",
    "specialists": [
      "General Medicine"
    ],
    "insurance": [
      "Star Health",
      "PNB MetLife"
    ],
    "fee": 633,
    "rating": 4.7,
    "reviews": "Processed via AI: Highly recommended for General Medicine",
    "location": {
      "lat": 11.112877238694136,
      "lng": 79.12142722466068
    }
  },
  {
    "id": 6,
    "external_id": "11212",
    "name": "Govt Andimadam UPHC, Ariyalur TN.",
    "city": "Ariyalur",
    "specialists": [
      "General Medicine"
    ],
    "insurance": [
      "Star Health",
      "PNB MetLife",
      "CMCHIS (Govt Scheme)"
    ],
    "fee": 0,
    "rating": 4.9,
    "reviews": "Processed via AI: Highly recommended for General Medicine",
    "location": {
      "lat": 11.18941820253378,
      "lng": 79.0491821012958
    }
  },
  {
    "id": 7,
    "external_id": "11211",
    "name": "Govt Hospital, Sendurai, Ariyalur TN.",
    "city": "Ariyalur",
    "specialists": [
      "General Medicine"
    ],
    "insurance": [
      "Star Health",
      "PNB MetLife",
      "CMCHIS (Govt Scheme)"
    ],
    "fee": 0,
    "rating": 3.6,
    "reviews": "Processed via AI: Highly recommended for General Medicine",
    "location": {
      "lat": 11.093819305032886,
      "lng": 79.07828918353161
    }
  },
  {
    "id": 8,
    "external_id": "11210",
    "name": "Govt Hospital, Udayarpalayam, Ariyalur TN.",
    "city": "Ariyalur",
    "specialists": [
      "General Medicine"
    ],
    "insurance": [
      "Star Health",
      "PNB MetLife",
      "CMCHIS (Govt Scheme)"
    ],
    "fee": 0,
    "rating": 3.7,
    "reviews": "Processed via AI: Highly recommended for General Medicine",
    "location": {
      "lat": 11.098098987703345,
      "lng": 79.11618324744136
    }
  },
  {
    "id": 9,
    "external_id": "11217",
    "name": "Govt Kadugur UPHC, Ariyalur TN.",
    "city": "Ariyalur",
    "specialists": [
      "General Medicine"
    ],
    "insurance": [
      "Star Health",
      "PNB MetLife",
      "CMCHIS (Govt Scheme)"
    ],
    "fee": 0,
    "rating": 4.2,
    "reviews": "Processed via AI: Highly recommended for General Medicine",
    "location": {
      "lat": 11.117303151093848,
      "lng": 79.10176198422332
    }
  },
  {
    "id": 10,
    "external_id": "11214",
    "name": "Govt Kumiliyam UPHC, Sendurai,  Ariyalur TN.",
    "city": "Ariyalur",
    "specialists": [
      "General Medicine"
    ],
    "insurance": [
      "Star Health",
      "PNB MetLife",
      "CMCHIS (Govt Scheme)"
    ],
    "fee": 0,
    "rating": 4.4,
    "reviews": "Processed via AI: Highly recommended for General Medicine",
    "location": {
      "lat": 11.179209283699695,
      "lng": 79.10933600095973
    }
  },
  {
    "id": 11,
    "external_id": "11213",
    "name": "Govt Meensurtty UPHC, Jayankondam, Ariyalur TN.",
    "city": "Ariyalur",
    "specialists": [
      "General Medicine"
    ],
    "insurance": [
      "Star Health",
      "PNB MetLife",
      "CMCHIS (Govt Scheme)"
    ],
    "fee": 0,
    "rating": 4.3,
    "reviews": "Processed via AI: Highly recommended for General Medicine",
    "location": {
      "lat": 11.170263511372898,
      "lng": 79.05533861280647
    }
  },
  {
    "id": 12,
    "external_id": "11215",
    "name": "Govt T.Palur UPHC, Ariyalur TN.",
    "city": "Ariyalur",
    "specialists": [
      "General Medicine"
    ],
    "insurance": [
      "Star Health",
      "PNB MetLife",
      "CMCHIS (Govt Scheme)"
    ],
    "fee": 0,
    "rating": 3.7,
    "reviews": "Processed via AI: Highly recommended for General Medicine",
    "location": {
      "lat": 11.107843172061216,
      "lng": 79.09691836061278
    }
  },
  {
    "id": 13,
    "external_id": "11216",
    "name": "Govt Thirumanur UPHC,  Ariyalur TN.",
    "city": "Ariyalur",
    "specialists": [
      "General Medicine"
    ],
    "insurance": [
      "Star Health",
      "PNB MetLife",
      "CMCHIS (Govt Scheme)"
    ],
    "fee": 0,
    "rating": 3.5,
    "reviews": "Processed via AI: Highly recommended for General Medicine",
    "location": {
      "lat": 11.179626601169655,
      "lng": 79.02894425426118
    }
  },
  {
    "id": 14,
    "external_id": "11208",
    "name": "Govt. Medical College and Hosp, Ariyalur TN.",
    "city": "Ariyalur",
    "specialists": [
      "General Medicine"
    ],
    "insurance": [
      "Star Health",
      "PNB MetLife",
      "CMCHIS (Govt Scheme)"
    ],
    "fee": 0,
    "rating": 4.2,
    "reviews": "Processed via AI: Highly recommended for General Medicine",
    "location": {
      "lat": 11.116778400837292,
      "lng": 79.06729986042706
    }
  },
  {
    "id": 15,
    "external_id": "11209",
    "name": "Govt.Head Qrtrs Jayakondam,Ariyalur TN.",
    "city": "Ariyalur",
    "specialists": [
      "General Medicine"
    ],
    "insurance": [
      "Star Health",
      "PNB MetLife",
      "CMCHIS (Govt Scheme)"
    ],
    "fee": 0,
    "rating": 4.6,
    "reviews": "Processed via AI: Highly recommended for General Medicine",
    "location": {
      "lat": 11.089895415402797,
      "lng": 79.03500476710566
    }
  },
  {
    "id": 16,
    "external_id": "11218",
    "name": "KVS Scans and Diagnostic, Ariyalur DC.",
    "city": "Ariyalur",
    "specialists": [
      "Radiologist"
    ],
    "insurance": [
      "Star Health",
      "PNB MetLife"
    ],
    "fee": 317,
    "rating": 4.8,
    "reviews": "Processed via AI: Highly recommended for Radiologist",
    "location": {
      "lat": 11.09617298465597,
      "lng": 79.0593175200181
    }
  },
  {
    "id": 17,
    "external_id": "11222",
    "name": "Nalam Multispeciality Hospital, Ariyalur TN. ",
    "city": "Ariyalur",
    "specialists": [
      "General Physician",
      "Cardiologist",
      "Orthopedic"
    ],
    "insurance": [
      "Star Health",
      "PNB MetLife"
    ],
    "fee": 367,
    "rating": 4.5,
    "reviews": "Processed via AI: Highly recommended for General Physician",
    "location": {
      "lat": 11.143600897095025,
      "lng": 79.06121401153138
    }
  },
  {
    "id": 18,
    "external_id": "11221",
    "name": "New life Critical Care Centre, Ariyalur TN.",
    "city": "Ariyalur",
    "specialists": [
      "General Medicine"
    ],
    "insurance": [
      "Star Health",
      "PNB MetLife"
    ],
    "fee": 447,
    "rating": 4.6,
    "reviews": "Processed via AI: Highly recommended for General Medicine",
    "location": {
      "lat": 11.182662086634803,
      "lng": 79.11677374717591
    }
  },
  {
    "id": 19,
    "external_id": "11248",
    "name": "Aarthi Scans, Chengalpet DC.",
    "city": "Chengalpet",
    "specialists": [
      "Radiologist"
    ],
    "insurance": [
      "Star Health",
      "PNB MetLife"
    ],
    "fee": 471,
    "rating": 4.5,
    "reviews": "Processed via AI: Highly recommended for Radiologist",
    "location": {
      "lat": 11.120792155039354,
      "lng": 78.63013315051016
    }
  },
  {
    "id": 20,
    "external_id": "11246",
    "name": "Absolute Special School, Autism, Chengalpattu, TN. ",
    "city": "Chengalpet",
    "specialists": [
      "General Medicine"
    ],
    "insurance": [
      "Star Health",
      "PNB MetLife"
    ],
    "fee": 550,
    "rating": 4.9,
    "reviews": "Processed via AI: Highly recommended for General Medicine",
    "location": {
      "lat": 11.078106173879645,
      "lng": 78.61546226356486
    }
  },
  {
    "id": 21,
    "external_id": "11253",
    "name": "Annai Arul Hospital, Chengalpet TN.",
    "city": "Chengalpet",
    "specialists": [
      "General Medicine"
    ],
    "insurance": [
      "Star Health",
      "PNB MetLife"
    ],
    "fee": 318,
    "rating": 4.9,
    "reviews": "Processed via AI: Highly recommended for General Medicine",
    "location": {
      "lat": 11.170050922314875,
      "lng": 78.67178376445972
    }
  },
  {
    "id": 22,
    "external_id": "11274",
    "name": "Apollo Speciality Hosptial, OMR, Chengalpet TN.",
    "city": "Chengalpet",
    "specialists": [
      "General Medicine"
    ],
    "insurance": [
      "Star Health",
      "PNB MetLife"
    ],
    "fee": 699,
    "rating": 4.9,
    "reviews": "Processed via AI: Highly recommended for General Medicine",
    "location": {
      "lat": 11.09665686597049,
      "lng": 78.62504875555095
    }
  },
  {
    "id": 23,
    "external_id": "11249",
    "name": "Arya Scans, Chengalpet DC.",
    "city": "Chengalpet",
    "specialists": [
      "Radiologist"
    ],
    "insurance": [
      "Star Health",
      "PNB MetLife"
    ],
    "fee": 712,
    "rating": 4,
    "reviews": "Processed via AI: Highly recommended for Radiologist",
    "location": {
      "lat": 11.163850113639391,
      "lng": 78.66330841303126
    }
  },
  {
    "id": 24,
    "external_id": "11276",
    "name": "B.M Hospital, Nanganallur, Chengalpet TN.",
    "city": "Chengalpet",
    "specialists": [
      "General Medicine"
    ],
    "insurance": [
      "Star Health",
      "PNB MetLife"
    ],
    "fee": 489,
    "rating": 5,
    "reviews": "Processed via AI: Highly recommended for General Medicine",
    "location": {
      "lat": 11.166077723091542,
      "lng": 78.68565601646094
    }
  },
  {
    "id": 25,
    "external_id": "11259",
    "name": "Balaji Hospital, Chengalpet TN.",
    "city": "Chengalpet",
    "specialists": [
      "General Medicine"
    ],
    "insurance": [
      "Star Health",
      "PNB MetLife"
    ],
    "fee": 729,
    "rating": 4.6,
    "reviews": "Processed via AI: Highly recommended for General Medicine",
    "location": {
      "lat": 11.110541088098751,
      "lng": 78.62547311156892
    }
  },
  {
    "id": 26,
    "external_id": "11283",
    "name": "Bharath Medical Col and Hosp, Chengalpet TN.",
    "city": "Chengalpet",
    "specialists": [
      "General Medicine"
    ],
    "insurance": [
      "Star Health",
      "PNB MetLife"
    ],
    "fee": 673,
    "rating": 3.9,
    "reviews": "Processed via AI: Highly recommended for General Medicine",
    "location": {
      "lat": 11.11962284808989,
      "lng": 78.62660865580784
    }
  },
  {
    "id": 27,
    "external_id": "11280",
    "name": "C-Dot Hospital, Chengalpet TN.",
    "city": "Chengalpet",
    "specialists": [
      "General Medicine"
    ],
    "insurance": [
      "Star Health",
      "PNB MetLife"
    ],
    "fee": 628,
    "rating": 3.9,
    "reviews": "Processed via AI: Highly recommended for General Medicine",
    "location": {
      "lat": 11.111977272199859,
      "lng": 78.62048493831371
    }
  },
  {
    "id": 28,
    "external_id": "11225",
    "name": "Chengalpet Medical College, Chengalpet TN.",
    "city": "Chengalpet",
    "specialists": [
      "General Medicine"
    ],
    "insurance": [
      "Star Health",
      "PNB MetLife",
      "CMCHIS (Govt Scheme)"
    ],
    "fee": 0,
    "rating": 3.7,
    "reviews": "Processed via AI: Highly recommended for General Medicine",
    "location": {
      "lat": 11.077824004242096,
      "lng": 78.67090325202025
    }
  },
  {
    "id": 29,
    "external_id": "11277",
    "name": "Chennai Urology And Robotics Inst, OMR, Chengalpet  TN.",
    "city": "Chengalpet",
    "specialists": [
      "General Medicine"
    ],
    "insurance": [
      "Star Health",
      "PNB MetLife"
    ],
    "fee": 794,
    "rating": 4.2,
    "reviews": "Processed via AI: Highly recommended for General Medicine",
    "location": {
      "lat": 11.161603655334538,
      "lng": 78.66895494819445
    }
  },
  {
    "id": 30,
    "external_id": "11293",
    "name": "Chettinad Hospital and Res Ins, Chengalpet TN.",
    "city": "Chengalpet",
    "specialists": [
      "General Medicine"
    ],
    "insurance": [
      "Star Health",
      "PNB MetLife"
    ],
    "fee": 717,
    "rating": 4.8,
    "reviews": "Processed via AI: Highly recommended for General Medicine",
    "location": {
      "lat": 11.15284662358099,
      "lng": 78.64081846383472
    }
  },
  {
    "id": 31,
    "external_id": "11260",
    "name": "Chettinad Super Speciality Hosp, Chengalpet TN.",
    "city": "Chengalpet",
    "specialists": [
      "General Medicine"
    ],
    "insurance": [
      "Star Health",
      "PNB MetLife"
    ],
    "fee": 594,
    "rating": 4.6,
    "reviews": "Processed via AI: Highly recommended for General Medicine",
    "location": {
      "lat": 11.07875101335508,
      "lng": 78.68540194075078
    }
  },
  {
    "id": 32,
    "external_id": "11266",
    "name": "Dr Kamakshi Memorial Hospital, Chengalpet TN.",
    "city": "Chengalpet",
    "specialists": [
      "General Medicine"
    ],
    "insurance": [
      "Star Health",
      "PNB MetLife"
    ],
    "fee": 347,
    "rating": 4.9,
    "reviews": "Processed via AI: Highly recommended for General Medicine",
    "location": {
      "lat": 11.11081286975711,
      "lng": 78.65737669908573
    }
  },
  {
    "id": 33,
    "external_id": "11271",
    "name": "Dr Kumars Health Care Pvt Ltd, Chengalpet, TN.",
    "city": "Chengalpet",
    "specialists": [
      "General Medicine"
    ],
    "insurance": [
      "Star Health",
      "PNB MetLife"
    ],
    "fee": 543,
    "rating": 3.5,
    "reviews": "Processed via AI: Highly recommended for General Medicine",
    "location": {
      "lat": 11.077327200968206,
      "lng": 78.62882336168214
    }
  },
  {
    "id": 34,
    "external_id": "11278",
    "name": "Dr. Rela Inst. and Medical Centre, Chengalpet TN.",
    "city": "Chengalpet",
    "specialists": [
      "General Medicine"
    ],
    "insurance": [
      "Star Health",
      "PNB MetLife"
    ],
    "fee": 783,
    "rating": 4.3,
    "reviews": "Processed via AI: Highly recommended for General Medicine",
    "location": {
      "lat": 11.142906005339622,
      "lng": 78.63806005544888
    }
  },
  {
    "id": 35,
    "external_id": "11284",
    "name": "Easy mom Fertility,maternity, Chengalpet TN.",
    "city": "Chengalpet",
    "specialists": [
      "Gynecologist"
    ],
    "insurance": [
      "Star Health",
      "PNB MetLife"
    ],
    "fee": 728,
    "rating": 4,
    "reviews": "Processed via AI: Highly recommended for Gynecologist",
    "location": {
      "lat": 11.14645794059452,
      "lng": 78.68211316967823
    }
  },
  {
    "id": 36,
    "external_id": "11281",
    "name": "Gem Hospital And Res Centre Pvt Ltd, Chengalpet TN.",
    "city": "Chengalpet",
    "specialists": [
      "General Medicine"
    ],
    "insurance": [
      "Star Health",
      "PNB MetLife"
    ],
    "fee": 420,
    "rating": 3.5,
    "reviews": "Processed via AI: Highly recommended for General Medicine",
    "location": {
      "lat": 11.121029227784915,
      "lng": 78.68239615967373
    }
  },
  {
    "id": 37,
    "external_id": "11251",
    "name": "Genorime Pvt Ltd, Chengalpet, DC.",
    "city": "Chengalpet",
    "specialists": [
      "General Medicine"
    ],
    "insurance": [
      "Star Health",
      "PNB MetLife"
    ],
    "fee": 467,
    "rating": 4.7,
    "reviews": "Processed via AI: Highly recommended for General Medicine",
    "location": {
      "lat": 11.159073420796005,
      "lng": 78.68300039787559
    }
  },
  {
    "id": 38,
    "external_id": "11254",
    "name": "Gleneagles Global Health City, Chengalpet TN.",
    "city": "Chengalpet",
    "specialists": [
      "General Medicine"
    ],
    "insurance": [
      "Star Health",
      "PNB MetLife"
    ],
    "fee": 712,
    "rating": 4.4,
    "reviews": "Processed via AI: Highly recommended for General Medicine",
    "location": {
      "lat": 11.083253769347115,
      "lng": 78.62337574798231
    }
  },
  {
    "id": 39,
    "external_id": "11229",
    "name": "Govt Head Qrtrs Hospital, Tambaram, Chengalpet TN.",
    "city": "Chengalpet",
    "specialists": [
      "General Medicine"
    ],
    "insurance": [
      "Star Health",
      "PNB MetLife",
      "CMCHIS (Govt Scheme)"
    ],
    "fee": 0,
    "rating": 4.3,
    "reviews": "Processed via AI: Highly recommended for General Medicine",
    "location": {
      "lat": 11.17218901502493,
      "lng": 78.64895213785725
    }
  },
  {
    "id": 40,
    "external_id": "11227",
    "name": "Govt Hospital, Cheyyur Chengalpet TN.",
    "city": "Chengalpet",
    "specialists": [
      "General Medicine"
    ],
    "insurance": [
      "Star Health",
      "PNB MetLife",
      "CMCHIS (Govt Scheme)"
    ],
    "fee": 0,
    "rating": 4.8,
    "reviews": "Processed via AI: Highly recommended for General Medicine",
    "location": {
      "lat": 11.098747225299055,
      "lng": 78.70291804324847
    }
  },
  {
    "id": 41,
    "external_id": "11228",
    "name": "Govt Hospital, Madhurandaham Chengalpet TN.",
    "city": "Chengalpet",
    "specialists": [
      "General Medicine"
    ],
    "insurance": [
      "Star Health",
      "PNB MetLife",
      "CMCHIS (Govt Scheme)"
    ],
    "fee": 0,
    "rating": 4.8,
    "reviews": "Processed via AI: Highly recommended for General Medicine",
    "location": {
      "lat": 11.171498878356367,
      "lng": 78.70269181505492
    }
  },
  {
    "id": 42,
    "external_id": "11230",
    "name": "Govt Hospital, Thiruporur, Chengalpet TN.",
    "city": "Chengalpet",
    "specialists": [
      "General Medicine"
    ],
    "insurance": [
      "Star Health",
      "PNB MetLife",
      "CMCHIS (Govt Scheme)"
    ],
    "fee": 0,
    "rating": 4.9,
    "reviews": "Processed via AI: Highly recommended for General Medicine",
    "location": {
      "lat": 11.144522923247544,
      "lng": 78.69228655732158
    }
  },
  {
    "id": 43,
    "external_id": "11231",
    "name": "Govt Hospital,Injabakkam,Chengalpet TN.",
    "city": "Chengalpet",
    "specialists": [
      "General Medicine"
    ],
    "insurance": [
      "Star Health",
      "PNB MetLife",
      "CMCHIS (Govt Scheme)"
    ],
    "fee": 0,
    "rating": 4.5,
    "reviews": "Processed via AI: Highly recommended for General Medicine",
    "location": {
      "lat": 11.095088432578947,
      "lng": 78.63024713905443
    }
  },
  {
    "id": 44,
    "external_id": "11232",
    "name": "Govt Hospital,Mahabalipuram, Chengalpet TN.",
    "city": "Chengalpet",
    "specialists": [
      "General Medicine"
    ],
    "insurance": [
      "Star Health",
      "PNB MetLife",
      "CMCHIS (Govt Scheme)"
    ],
    "fee": 0,
    "rating": 4.5,
    "reviews": "Processed via AI: Highly recommended for General Medicine",
    "location": {
      "lat": 11.111658222017029,
      "lng": 78.64054587627514
    }
  },
  {
    "id": 45,
    "external_id": "11233",
    "name": "Govt Hospital,Thirukalukundram,Chengalpet TN.",
    "city": "Chengalpet",
    "specialists": [
      "General Medicine"
    ],
    "insurance": [
      "Star Health",
      "PNB MetLife",
      "CMCHIS (Govt Scheme)"
    ],
    "fee": 0,
    "rating": 4.1,
    "reviews": "Processed via AI: Highly recommended for General Medicine",
    "location": {
      "lat": 11.109867732765734,
      "lng": 78.68524438347981
    }
  },
  {
    "id": 46,
    "external_id": "11224",
    "name": "Govt PHC, Nandhivaram, Chengalpattu, TN. ",
    "city": "Chengalpet",
    "specialists": [
      "General Medicine"
    ],
    "insurance": [
      "Star Health",
      "PNB MetLife"
    ],
    "fee": 582,
    "rating": 5,
    "reviews": "Processed via AI: Highly recommended for General Medicine",
    "location": {
      "lat": 11.109520265421475,
      "lng": 78.60983793927896
    }
  },
  {
    "id": 47,
    "external_id": "11226",
    "name": "Govt Sanatorium, Chengalpet TN.",
    "city": "Chengalpet",
    "specialists": [
      "General Medicine"
    ],
    "insurance": [
      "Star Health",
      "PNB MetLife",
      "CMCHIS (Govt Scheme)"
    ],
    "fee": 0,
    "rating": 4.4,
    "reviews": "Processed via AI: Highly recommended for General Medicine",
    "location": {
      "lat": 11.153596716503126,
      "lng": 78.70520219471715
    }
  },
  {
    "id": 48,
    "external_id": "11223",
    "name": "Govt.DDWO,Chengalpattu TN. ",
    "city": "Chengalpet",
    "specialists": [
      "General Medicine"
    ],
    "insurance": [
      "Star Health",
      "PNB MetLife"
    ],
    "fee": 438,
    "rating": 4.4,
    "reviews": "Processed via AI: Highly recommended for General Medicine",
    "location": {
      "lat": 11.174969522374523,
      "lng": 78.64769889089497
    }
  },
  {
    "id": 49,
    "external_id": "11241",
    "name": "Govt.PHC St.Thomas mount,Chengalpattu TN.",
    "city": "Chengalpet",
    "specialists": [
      "General Medicine"
    ],
    "insurance": [
      "Star Health",
      "PNB MetLife",
      "CMCHIS (Govt Scheme)"
    ],
    "fee": 0,
    "rating": 3.7,
    "reviews": "Processed via AI: Highly recommended for General Medicine",
    "location": {
      "lat": 11.109120577395096,
      "lng": 78.61682621073233
    }
  },
  {
    "id": 50,
    "external_id": "11242",
    "name": "Govt.PHC Tiruporur,Chengalpattu TN.",
    "city": "Chengalpet",
    "specialists": [
      "General Medicine"
    ],
    "insurance": [
      "Star Health",
      "PNB MetLife",
      "CMCHIS (Govt Scheme)"
    ],
    "fee": 0,
    "rating": 4.6,
    "reviews": "Processed via AI: Highly recommended for General Medicine",
    "location": {
      "lat": 11.097475061633858,
      "lng": 78.63760726819244
    }
  },
  {
    "id": 51,
    "external_id": "11243",
    "name": "Govt.PHC,Chithamur,idaikalinadu,Chengulpet TN.",
    "city": "Chengalpet",
    "specialists": [
      "General Medicine"
    ],
    "insurance": [
      "Star Health",
      "PNB MetLife",
      "CMCHIS (Govt Scheme)"
    ],
    "fee": 0,
    "rating": 4.5,
    "reviews": "Processed via AI: Highly recommended for General Medicine",
    "location": {
      "lat": 11.078753301281804,
      "lng": 78.63506364691405
    }
  },
  {
    "id": 52,
    "external_id": "11244",
    "name": "Govt.PHC,Tirukalukundram,Sadras,Chengulpet TN.",
    "city": "Chengalpet",
    "specialists": [
      "General Medicine"
    ],
    "insurance": [
      "Star Health",
      "PNB MetLife",
      "CMCHIS (Govt Scheme)"
    ],
    "fee": 0,
    "rating": 3.5,
    "reviews": "Processed via AI: Highly recommended for General Medicine",
    "location": {
      "lat": 11.150571288111978,
      "lng": 78.69881620319522
    }
  },
  {
    "id": 53,
    "external_id": "11234",
    "name": "Govt.UPHC Achirapakkam,Chengalpattu TN.",
    "city": "Chengalpet",
    "specialists": [
      "General Medicine"
    ],
    "insurance": [
      "Star Health",
      "PNB MetLife",
      "CMCHIS (Govt Scheme)"
    ],
    "fee": 0,
    "rating": 4.9,
    "reviews": "Processed via AI: Highly recommended for General Medicine",
    "location": {
      "lat": 11.153102254207157,
      "lng": 78.60900596039538
    }
  },
  {
    "id": 54,
    "external_id": "11235",
    "name": "Govt.UPHC Chunamed,Chengalpattu TN. ",
    "city": "Chengalpet",
    "specialists": [
      "General Medicine"
    ],
    "insurance": [
      "Star Health",
      "PNB MetLife",
      "CMCHIS (Govt Scheme)"
    ],
    "fee": 0,
    "rating": 4,
    "reviews": "Processed via AI: Highly recommended for General Medicine",
    "location": {
      "lat": 11.107679742529642,
      "lng": 78.66825784546418
    }
  },
  {
    "id": 55,
    "external_id": "11237",
    "name": "Govt.UPHC Kelambakkam,Chengalpattu TN.",
    "city": "Chengalpet",
    "specialists": [
      "General Medicine"
    ],
    "insurance": [
      "Star Health",
      "PNB MetLife",
      "CMCHIS (Govt Scheme)"
    ],
    "fee": 0,
    "rating": 4.1,
    "reviews": "Processed via AI: Highly recommended for General Medicine",
    "location": {
      "lat": 11.133323014497586,
      "lng": 78.62475168447743
    }
  },
  {
    "id": 56,
    "external_id": "11240",
    "name": "Govt.UPHC Madhuranthagam ,Chengalpattu TN.",
    "city": "Chengalpet",
    "specialists": [
      "General Medicine"
    ],
    "insurance": [
      "Star Health",
      "PNB MetLife",
      "CMCHIS (Govt Scheme)"
    ],
    "fee": 0,
    "rating": 3.7,
    "reviews": "Processed via AI: Highly recommended for General Medicine",
    "location": {
      "lat": 11.14079522592996,
      "lng": 78.61236454122107
    }
  },
  {
    "id": 57,
    "external_id": "11239",
    "name": "Govt.UPHC Medavakkam,Chengalpattu TN.",
    "city": "Chengalpet",
    "specialists": [
      "General Medicine"
    ],
    "insurance": [
      "Star Health",
      "PNB MetLife",
      "CMCHIS (Govt Scheme)"
    ],
    "fee": 0,
    "rating": 4.1,
    "reviews": "Processed via AI: Highly recommended for General Medicine",
    "location": {
      "lat": 11.170661908854576,
      "lng": 78.61427870756826
    }
  },
  {
    "id": 58,
    "external_id": "11238",
    "name": "Govt.UPHC Nandhivaram,Chengalpattu TN. ",
    "city": "Chengalpet",
    "specialists": [
      "General Medicine"
    ],
    "insurance": [
      "Star Health",
      "PNB MetLife",
      "CMCHIS (Govt Scheme)"
    ],
    "fee": 0,
    "rating": 3.9,
    "reviews": "Processed via AI: Highly recommended for General Medicine",
    "location": {
      "lat": 11.113185810125024,
      "lng": 78.65074258116803
    }
  },
  {
    "id": 59,
    "external_id": "11236",
    "name": "Govt.UPHC Pavanjur,Chengalpattu TN.",
    "city": "Chengalpet",
    "specialists": [
      "General Medicine"
    ],
    "insurance": [
      "Star Health",
      "PNB MetLife",
      "CMCHIS (Govt Scheme)"
    ],
    "fee": 0,
    "rating": 4,
    "reviews": "Processed via AI: Highly recommended for General Medicine",
    "location": {
      "lat": 11.094429002383226,
      "lng": 78.69608103580285
    }
  },
  {
    "id": 60,
    "external_id": "11245",
    "name": "Govt.UPHC Semmancherry, Chengalpattu TN.  ",
    "city": "Chengalpet",
    "specialists": [
      "General Medicine"
    ],
    "insurance": [
      "Star Health",
      "PNB MetLife",
      "CMCHIS (Govt Scheme)"
    ],
    "fee": 0,
    "rating": 4,
    "reviews": "Processed via AI: Highly recommended for General Medicine",
    "location": {
      "lat": 11.1312509405714,
      "lng": 78.6312246074785
    }
  },
  {
    "id": 61,
    "external_id": "11267",
    "name": "Hariharan Diabetes, Chengalpet TN.",
    "city": "Chengalpet",
    "specialists": [
      "General Medicine"
    ],
    "insurance": [
      "Star Health",
      "PNB MetLife"
    ],
    "fee": 557,
    "rating": 4.1,
    "reviews": "Processed via AI: Highly recommended for General Medicine",
    "location": {
      "lat": 11.119335970678835,
      "lng": 78.69589088941734
    }
  },
  {
    "id": 62,
    "external_id": "11255",
    "name": "Hindu Mission Health Services, Chengalpet TN.",
    "city": "Chengalpet",
    "specialists": [
      "General Medicine"
    ],
    "insurance": [
      "Star Health",
      "PNB MetLife"
    ],
    "fee": 371,
    "rating": 4,
    "reviews": "Processed via AI: Highly recommended for General Medicine",
    "location": {
      "lat": 11.117684117780897,
      "lng": 78.60971798884621
    }
  },
  {
    "id": 63,
    "external_id": "11256",
    "name": "Hindu Mission Hospital, Chengalpet TN.",
    "city": "Chengalpet",
    "specialists": [
      "General Medicine"
    ],
    "insurance": [
      "Star Health",
      "PNB MetLife"
    ],
    "fee": 523,
    "rating": 4.4,
    "reviews": "Processed via AI: Highly recommended for General Medicine",
    "location": {
      "lat": 11.143541748417308,
      "lng": 78.61188858666297
    }
  },
  {
    "id": 64,
    "external_id": "11291",
    "name": "Jeevan Sumyuktha Hospitals, Chengalpet TN.",
    "city": "Chengalpet",
    "specialists": [
      "General Medicine"
    ],
    "insurance": [
      "Star Health",
      "PNB MetLife"
    ],
    "fee": 413,
    "rating": 4.2,
    "reviews": "Processed via AI: Highly recommended for General Medicine",
    "location": {
      "lat": 11.136932969838464,
      "lng": 78.65821299169934
    }
  },
  {
    "id": 65,
    "external_id": "11296",
    "name": "JJ Hospital, Chengalpet, TN.",
    "city": "Chengalpet",
    "specialists": [
      "General Medicine"
    ],
    "insurance": [
      "Star Health",
      "PNB MetLife"
    ],
    "fee": 769,
    "rating": 4,
    "reviews": "Processed via AI: Highly recommended for General Medicine",
    "location": {
      "lat": 11.096822764524859,
      "lng": 78.6620940061172
    }
  },
  {
    "id": 66,
    "external_id": "11287",
    "name": "Jolen Hospital, Chengalpet TN.",
    "city": "Chengalpet",
    "specialists": [
      "General Medicine"
    ],
    "insurance": [
      "Star Health",
      "PNB MetLife"
    ],
    "fee": 792,
    "rating": 4.9,
    "reviews": "Processed via AI: Highly recommended for General Medicine",
    "location": {
      "lat": 11.099669937326064,
      "lng": 78.66072462629235
    }
  },
  {
    "id": 67,
    "external_id": "11292",
    "name": "JSP Hospital Pvt Ltd, Chengalpet TN.",
    "city": "Chengalpet",
    "specialists": [
      "General Medicine"
    ],
    "insurance": [
      "Star Health",
      "PNB MetLife"
    ],
    "fee": 711,
    "rating": 4.8,
    "reviews": "Processed via AI: Highly recommended for General Medicine",
    "location": {
      "lat": 11.109616436082076,
      "lng": 78.68655376879006
    }
  },
  {
    "id": 68,
    "external_id": "11268",
    "name": "Karpaga Vinyaga Institute, Chengalpet,TN.",
    "city": "Chengalpet",
    "specialists": [
      "General Medicine"
    ],
    "insurance": [
      "Star Health",
      "PNB MetLife"
    ],
    "fee": 738,
    "rating": 4,
    "reviews": "Processed via AI: Highly recommended for General Medicine",
    "location": {
      "lat": 11.131481450682795,
      "lng": 78.63780802604802
    }
  },
  {
    "id": 69,
    "external_id": "11289",
    "name": "Kasturi Hospital, Tambaram, Chengalpet TN.",
    "city": "Chengalpet",
    "specialists": [
      "General Medicine"
    ],
    "insurance": [
      "Star Health",
      "PNB MetLife"
    ],
    "fee": 685,
    "rating": 3.8,
    "reviews": "Processed via AI: Highly recommended for General Medicine",
    "location": {
      "lat": 11.095577207552926,
      "lng": 78.61793244416481
    }
  },
  {
    "id": 70,
    "external_id": "11250",
    "name": "LifeCell international Pvt Ltd, Chengalpet DC.",
    "city": "Chengalpet",
    "specialists": [
      "General Medicine"
    ],
    "insurance": [
      "Star Health",
      "PNB MetLife"
    ],
    "fee": 636,
    "rating": 3.5,
    "reviews": "Processed via AI: Highly recommended for General Medicine",
    "location": {
      "lat": 11.113191097790207,
      "lng": 78.6582157480076
    }
  },
  {
    "id": 71,
    "external_id": "11290",
    "name": "Lions Hemodialysis Centre, Chengalpet TN.",
    "city": "Chengalpet",
    "specialists": [
      "Nephrologist"
    ],
    "insurance": [
      "Star Health",
      "PNB MetLife"
    ],
    "fee": 514,
    "rating": 4.6,
    "reviews": "Processed via AI: Highly recommended for Nephrologist",
    "location": {
      "lat": 11.082868115893426,
      "lng": 78.62576012840864
    }
  },
  {
    "id": 72,
    "external_id": "11269",
    "name": "Melmaruvathur Adhiparsakthi Inst, Chengalpet TN.",
    "city": "Chengalpet",
    "specialists": [
      "General Medicine"
    ],
    "insurance": [
      "Star Health",
      "PNB MetLife"
    ],
    "fee": 592,
    "rating": 4.4,
    "reviews": "Processed via AI: Highly recommended for General Medicine",
    "location": {
      "lat": 11.15768755529077,
      "lng": 78.69848802741593
    }
  },
  {
    "id": 73,
    "external_id": "11279",
    "name": "Melvin Jones Lions Dialysis, Chengalpet TN.",
    "city": "Chengalpet",
    "specialists": [
      "Nephrologist"
    ],
    "insurance": [
      "Star Health",
      "PNB MetLife"
    ],
    "fee": 500,
    "rating": 3.7,
    "reviews": "Processed via AI: Highly recommended for Nephrologist",
    "location": {
      "lat": 11.153643474582958,
      "lng": 78.61733315292187
    }
  },
  {
    "id": 74,
    "external_id": "11247",
    "name": "Mothers Special School, ID,Autism, Chengalpet, TN. ",
    "city": "Chengalpet",
    "specialists": [
      "General Medicine"
    ],
    "insurance": [
      "Star Health",
      "PNB MetLife"
    ],
    "fee": 747,
    "rating": 4.9,
    "reviews": "Processed via AI: Highly recommended for General Medicine",
    "location": {
      "lat": 11.09211716812194,
      "lng": 78.70424317968416
    }
  },
  {
    "id": 75,
    "external_id": "11286",
    "name": "One Health hospital, Chengalpet TN.",
    "city": "Chengalpet",
    "specialists": [
      "General Medicine"
    ],
    "insurance": [
      "Star Health",
      "PNB MetLife"
    ],
    "fee": 631,
    "rating": 4.6,
    "reviews": "Processed via AI: Highly recommended for General Medicine",
    "location": {
      "lat": 11.120086945845113,
      "lng": 78.63921557418175
    }
  },
  {
    "id": 76,
    "external_id": "11270",
    "name": "Parvathy Ortho Hospital, Chengalpet TN.",
    "city": "Chengalpet",
    "specialists": [
      "Orthopedic Surgeon"
    ],
    "insurance": [
      "Star Health",
      "PNB MetLife"
    ],
    "fee": 521,
    "rating": 4.6,
    "reviews": "Processed via AI: Highly recommended for Orthopedic Surgeon",
    "location": {
      "lat": 11.134739807533318,
      "lng": 78.63573855560631
    }
  },
  {
    "id": 77,
    "external_id": "11295",
    "name": "RKP Hospital Pvt Ltd., Chengalpet, TN.",
    "city": "Chengalpet",
    "specialists": [
      "General Medicine"
    ],
    "insurance": [
      "Star Health",
      "PNB MetLife"
    ],
    "fee": 632,
    "rating": 3.8,
    "reviews": "Processed via AI: Highly recommended for General Medicine",
    "location": {
      "lat": 11.15832750565318,
      "lng": 78.66857331812747
    }
  },
  {
    "id": 78,
    "external_id": "11298",
    "name": "Rotary club Maraimalainagar, Chengalpattu, TN.",
    "city": "Chengalpet",
    "specialists": [
      "General Medicine"
    ],
    "insurance": [
      "Star Health",
      "PNB MetLife"
    ],
    "fee": 712,
    "rating": 4.9,
    "reviews": "Processed via AI: Highly recommended for General Medicine",
    "location": {
      "lat": 11.102252681738896,
      "lng": 78.66105469406533
    }
  },
  {
    "id": 79,
    "external_id": "11282",
    "name": "Sai Fertility Centre and Hospital,Chengalpet TN.",
    "city": "Chengalpet",
    "specialists": [
      "General Medicine"
    ],
    "insurance": [
      "Star Health",
      "PNB MetLife"
    ],
    "fee": 519,
    "rating": 4,
    "reviews": "Processed via AI: Highly recommended for General Medicine",
    "location": {
      "lat": 11.119229985494757,
      "lng": 78.63917432764202
    }
  },
  {
    "id": 80,
    "external_id": "11257",
    "name": "Sankara Eye Hospital, Chengalpet TN.",
    "city": "Chengalpet",
    "specialists": [
      "Ophthalmologist"
    ],
    "insurance": [
      "Star Health",
      "PNB MetLife"
    ],
    "fee": 781,
    "rating": 5,
    "reviews": "Processed via AI: Highly recommended for Ophthalmologist",
    "location": {
      "lat": 11.080079007049951,
      "lng": 78.68240448815023
    }
  },
  {
    "id": 81,
    "external_id": "11275",
    "name": "Shadithya Health Care, Chengalpet TN.",
    "city": "Chengalpet",
    "specialists": [
      "General Medicine"
    ],
    "insurance": [
      "Star Health",
      "PNB MetLife"
    ],
    "fee": 473,
    "rating": 4.8,
    "reviews": "Processed via AI: Highly recommended for General Medicine",
    "location": {
      "lat": 11.077755484677407,
      "lng": 78.7035356044583
    }
  },
  {
    "id": 82,
    "external_id": "11261",
    "name": "Shri Sathya Sai Medical College, Chengalpet TN.",
    "city": "Chengalpet",
    "specialists": [
      "General Medicine"
    ],
    "insurance": [
      "Star Health",
      "PNB MetLife"
    ],
    "fee": 685,
    "rating": 3.9,
    "reviews": "Processed via AI: Highly recommended for General Medicine",
    "location": {
      "lat": 11.173115266231616,
      "lng": 78.60756692925955
    }
  },
  {
    "id": 83,
    "external_id": "11252",
    "name": "Shrimpex Biotech Services Pvt Ltd, Chengalpet, DC.",
    "city": "Chengalpet",
    "specialists": [
      "General Medicine"
    ],
    "insurance": [
      "Star Health",
      "PNB MetLife"
    ],
    "fee": 586,
    "rating": 3.8,
    "reviews": "Processed via AI: Highly recommended for General Medicine",
    "location": {
      "lat": 11.124760565292995,
      "lng": 78.64158218312653
    }
  },
  {
    "id": 84,
    "external_id": "11262",
    "name": "Sree Renga Nursing Home, Chengalpet TN.",
    "city": "Chengalpet",
    "specialists": [
      "General Medicine"
    ],
    "insurance": [
      "Star Health",
      "PNB MetLife"
    ],
    "fee": 373,
    "rating": 4.3,
    "reviews": "Processed via AI: Highly recommended for General Medicine",
    "location": {
      "lat": 11.07761319265742,
      "lng": 78.64780035272145
    }
  },
  {
    "id": 85,
    "external_id": "11263",
    "name": "Sri Balaji Medical Coll and Hosp, Chengalpet TN.",
    "city": "Chengalpet",
    "specialists": [
      "General Medicine"
    ],
    "insurance": [
      "Star Health",
      "PNB MetLife"
    ],
    "fee": 528,
    "rating": 4.7,
    "reviews": "Processed via AI: Highly recommended for General Medicine",
    "location": {
      "lat": 11.159459223837425,
      "lng": 78.6919680893722
    }
  },
  {
    "id": 86,
    "external_id": "11272",
    "name": "Sri Chakara Multi Hospital, Chengalpet TN.",
    "city": "Chengalpet",
    "specialists": [
      "General Physician",
      "Cardiologist",
      "Orthopedic"
    ],
    "insurance": [
      "Star Health",
      "PNB MetLife"
    ],
    "fee": 522,
    "rating": 4.3,
    "reviews": "Processed via AI: Highly recommended for General Physician",
    "location": {
      "lat": 11.138802564079043,
      "lng": 78.64810439466423
    }
  },
  {
    "id": 87,
    "external_id": "11297",
    "name": "Sri Kauvery Medical Care Ltd, Chengalpattu, TN.",
    "city": "Chengalpet",
    "specialists": [
      "General Medicine"
    ],
    "insurance": [
      "Star Health",
      "PNB MetLife"
    ],
    "fee": 533,
    "rating": 4.3,
    "reviews": "Processed via AI: Highly recommended for General Medicine",
    "location": {
      "lat": 11.087467297217273,
      "lng": 78.65042612426058
    }
  },
  {
    "id": 88,
    "external_id": "11294",
    "name": "Sringeri Sharada Equitas Hospital, Chengalpet, TN.",
    "city": "Chengalpet",
    "specialists": [
      "General Medicine"
    ],
    "insurance": [
      "Star Health",
      "PNB MetLife"
    ],
    "fee": 610,
    "rating": 4.1,
    "reviews": "Processed via AI: Highly recommended for General Medicine",
    "location": {
      "lat": 11.125638941813756,
      "lng": 78.64738636698537
    }
  },
  {
    "id": 89,
    "external_id": "11264",
    "name": "SRM Medical College Hospital, Chengalpet TN.",
    "city": "Chengalpet",
    "specialists": [
      "General Medicine"
    ],
    "insurance": [
      "Star Health",
      "PNB MetLife"
    ],
    "fee": 642,
    "rating": 4.2,
    "reviews": "Processed via AI: Highly recommended for General Medicine",
    "location": {
      "lat": 11.164632785708086,
      "lng": 78.70417053034758
    }
  },
  {
    "id": 90,
    "external_id": "11273",
    "name": "St. Thomas Hospital, Chengalpet TN.",
    "city": "Chengalpet",
    "specialists": [
      "General Medicine"
    ],
    "insurance": [
      "Star Health",
      "PNB MetLife"
    ],
    "fee": 680,
    "rating": 4.6,
    "reviews": "Processed via AI: Highly recommended for General Medicine",
    "location": {
      "lat": 11.097844119673356,
      "lng": 78.68718362411661
    }
  },
  {
    "id": 91,
    "external_id": "11258",
    "name": "Sugam Hospital, Chengalpet TN.",
    "city": "Chengalpet",
    "specialists": [
      "General Medicine"
    ],
    "insurance": [
      "Star Health",
      "PNB MetLife"
    ],
    "fee": 718,
    "rating": 4.5,
    "reviews": "Processed via AI: Highly recommended for General Medicine",
    "location": {
      "lat": 11.165123073415211,
      "lng": 78.6395658966283
    }
  },
  {
    "id": 92,
    "external_id": "11265",
    "name": "Tagore Medical Coll And Hosp, Chengalpet TN.",
    "city": "Chengalpet",
    "specialists": [
      "General Medicine"
    ],
    "insurance": [
      "Star Health",
      "PNB MetLife"
    ],
    "fee": 699,
    "rating": 4.4,
    "reviews": "Processed via AI: Highly recommended for General Medicine",
    "location": {
      "lat": 11.107219886023909,
      "lng": 78.67430306995702
    }
  },
  {
    "id": 93,
    "external_id": "11288",
    "name": "Tagore Specialty Hospital, Chengalpet TN.",
    "city": "Chengalpet",
    "specialists": [
      "General Medicine"
    ],
    "insurance": [
      "Star Health",
      "PNB MetLife"
    ],
    "fee": 680,
    "rating": 3.7,
    "reviews": "Processed via AI: Highly recommended for General Medicine",
    "location": {
      "lat": 11.101169934232201,
      "lng": 78.65911455267837
    }
  },
  {
    "id": 94,
    "external_id": "11285",
    "name": "Unittas Multi Speciality Hospital,chenglapattu TN.",
    "city": "Chengalpet",
    "specialists": [
      "General Physician",
      "Cardiologist",
      "Orthopedic"
    ],
    "insurance": [
      "Star Health",
      "PNB MetLife"
    ],
    "fee": 578,
    "rating": 4.1,
    "reviews": "Processed via AI: Highly recommended for General Physician",
    "location": {
      "lat": 11.106650177867417,
      "lng": 78.641022371678
    }
  },
  {
    "id": 95,
    "external_id": "11299",
    "name": "Vasan Eye Care Hospital, Chengalpattu, TN.",
    "city": "Chengalpet",
    "specialists": [
      "Ophthalmologist"
    ],
    "insurance": [
      "Star Health",
      "PNB MetLife"
    ],
    "fee": 338,
    "rating": 3.6,
    "reviews": "Processed via AI: Highly recommended for Ophthalmologist",
    "location": {
      "lat": 11.104958384409363,
      "lng": 78.6629219962172
    }
  },
  {
    "id": 96,
    "external_id": "11362",
    "name": "Aarthi Scans kilpauk, Chennai DC.",
    "city": "Chennai",
    "specialists": [
      "Radiologist"
    ],
    "insurance": [
      "Star Health",
      "PNB MetLife"
    ],
    "fee": 358,
    "rating": 4.4,
    "reviews": "Processed via AI: Highly recommended for Radiologist",
    "location": {
      "lat": 13.127626415815561,
      "lng": 80.26732414257494
    }
  },
  {
    "id": 97,
    "external_id": "11360",
    "name": "Aarthi Scans, Alwarpet, Chennai DC.",
    "city": "Chennai",
    "specialists": [
      "Radiologist"
    ],
    "insurance": [
      "Star Health",
      "PNB MetLife"
    ],
    "fee": 598,
    "rating": 3.6,
    "reviews": "Processed via AI: Highly recommended for Radiologist",
    "location": {
      "lat": 13.115328267146472,
      "lng": 80.29432252249917
    }
  },
  {
    "id": 98,
    "external_id": "11377",
    "name": "Aarthi Scans, Vadapalani,Chennai DC.",
    "city": "Chennai",
    "specialists": [
      "Radiologist"
    ],
    "insurance": [
      "Star Health",
      "PNB MetLife"
    ],
    "fee": 319,
    "rating": 3.8,
    "reviews": "Processed via AI: Highly recommended for Radiologist",
    "location": {
      "lat": 13.046246533988937,
      "lng": 80.25357570992759
    }
  },
  {
    "id": 99,
    "external_id": "11363",
    "name": "Aarthi Scans,Tondiarpet Chennai DC.",
    "city": "Chennai",
    "specialists": [
      "Radiologist"
    ],
    "insurance": [
      "Star Health",
      "PNB MetLife"
    ],
    "fee": 358,
    "rating": 3.6,
    "reviews": "Processed via AI: Highly recommended for Radiologist",
    "location": {
      "lat": 13.120540948364809,
      "lng": 80.30789788823994
    }
  },
  {
    "id": 100,
    "external_id": "11461",
    "name": "Adambakkam Sudar Hospital, Chennai TN.",
    "city": "Chennai",
    "specialists": [
      "General Medicine"
    ],
    "insurance": [
      "Star Health",
      "PNB MetLife"
    ],
    "fee": 748,
    "rating": 4,
    "reviews": "Processed via AI: Highly recommended for General Medicine",
    "location": {
      "lat": 13.046899437805488,
      "lng": 80.27725870000506
    }
  },
  {
    "id": 101,
    "external_id": "11366",
    "name": "Advanced Nuclear Research,Chennai DC",
    "city": "Chennai",
    "specialists": [
      "General Medicine"
    ],
    "insurance": [
      "Star Health",
      "PNB MetLife"
    ],
    "fee": 597,
    "rating": 4,
    "reviews": "Processed via AI: Highly recommended for General Medicine",
    "location": {
      "lat": 13.048636500005916,
      "lng": 80.22734905867799
    }
  },
  {
    "id": 102,
    "external_id": "11436",
    "name": "Adyar PM Hospital,Adyar,Chennai TN.",
    "city": "Chennai",
    "specialists": [
      "General Medicine"
    ],
    "insurance": [
      "Star Health",
      "PNB MetLife"
    ],
    "fee": 453,
    "rating": 3.8,
    "reviews": "Processed via AI: Highly recommended for General Medicine",
    "location": {
      "lat": 13.043161518801723,
      "lng": 80.2917150226969
    }
  },
  {
    "id": 103,
    "external_id": "11444",
    "name": "Amma Hospital, Chennai TN",
    "city": "Chennai",
    "specialists": [
      "General Medicine"
    ],
    "insurance": [
      "Star Health",
      "PNB MetLife"
    ],
    "fee": 423,
    "rating": 3.9,
    "reviews": "Processed via AI: Highly recommended for General Medicine",
    "location": {
      "lat": 13.033624830422784,
      "lng": 80.24193699331538
    }
  },
  {
    "id": 104,
    "external_id": "11454",
    "name": "AN-NOOR Eye hospital,Chennai TN.",
    "city": "Chennai",
    "specialists": [
      "Ophthalmologist"
    ],
    "insurance": [
      "Star Health",
      "PNB MetLife"
    ],
    "fee": 483,
    "rating": 4,
    "reviews": "Processed via AI: Highly recommended for Ophthalmologist",
    "location": {
      "lat": 13.07815143907061,
      "lng": 80.28397101678786
    }
  },
  {
    "id": 105,
    "external_id": "11480",
    "name": "Anchibai Hemraj Katariya Dialysis, Chennai TN. ",
    "city": "Chennai",
    "specialists": [
      "Nephrologist"
    ],
    "insurance": [
      "Star Health",
      "PNB MetLife"
    ],
    "fee": 676,
    "rating": 3.5,
    "reviews": "Processed via AI: Highly recommended for Nephrologist",
    "location": {
      "lat": 13.073781589081591,
      "lng": 80.27566476538556
    }
  },
  {
    "id": 106,
    "external_id": "11373",
    "name": "Anderson Diagnostic Services,Nungamb , Chennai DC.",
    "city": "Chennai",
    "specialists": [
      "General Medicine"
    ],
    "insurance": [
      "Star Health",
      "PNB MetLife"
    ],
    "fee": 691,
    "rating": 4.3,
    "reviews": "Processed via AI: Highly recommended for General Medicine",
    "location": {
      "lat": 13.117394911222632,
      "lng": 80.29044369786158
    }
  },
  {
    "id": 107,
    "external_id": "11376",
    "name": "Anderson Diagnostic sevices, Purasai, Chennai DC.",
    "city": "Chennai",
    "specialists": [
      "General Medicine"
    ],
    "insurance": [
      "Star Health",
      "PNB MetLife"
    ],
    "fee": 799,
    "rating": 3.7,
    "reviews": "Processed via AI: Highly recommended for General Medicine",
    "location": {
      "lat": 13.04285336819902,
      "lng": 80.27354707615827
    }
  },
  {
    "id": 108,
    "external_id": "11442",
    "name": "Annai multi speciality,Virugambakkam,Chennai TN",
    "city": "Chennai",
    "specialists": [
      "General Physician",
      "Cardiologist",
      "Orthopedic"
    ],
    "insurance": [
      "Star Health",
      "PNB MetLife"
    ],
    "fee": 638,
    "rating": 3.9,
    "reviews": "Processed via AI: Highly recommended for General Physician",
    "location": {
      "lat": 13.074286023954686,
      "lng": 80.25208733096058
    }
  },
  {
    "id": 109,
    "external_id": "11390",
    "name": "Apollo Childrens Hospital,Chennai TN.",
    "city": "Chennai",
    "specialists": [
      "General Medicine"
    ],
    "insurance": [
      "Star Health",
      "PNB MetLife"
    ],
    "fee": 419,
    "rating": 4.7,
    "reviews": "Processed via AI: Highly recommended for General Medicine",
    "location": {
      "lat": 13.08077029452635,
      "lng": 80.28950816888926
    }
  },
  {
    "id": 110,
    "external_id": "11392",
    "name": "Apollo Greams,Chennai TN.",
    "city": "Chennai",
    "specialists": [
      "General Medicine"
    ],
    "insurance": [
      "Star Health",
      "PNB MetLife"
    ],
    "fee": 525,
    "rating": 4.1,
    "reviews": "Processed via AI: Highly recommended for General Medicine",
    "location": {
      "lat": 13.06262849048372,
      "lng": 80.24622523329806
    }
  },
  {
    "id": 111,
    "external_id": "11394",
    "name": "APOLLO SPECIALTY HOSPITAL, Chennai TN.",
    "city": "Chennai",
    "specialists": [
      "General Medicine"
    ],
    "insurance": [
      "Star Health",
      "PNB MetLife"
    ],
    "fee": 443,
    "rating": 3.6,
    "reviews": "Processed via AI: Highly recommended for General Medicine",
    "location": {
      "lat": 13.08479379889792,
      "lng": 80.25216590850621
    }
  },
  {
    "id": 112,
    "external_id": "11439",
    "name": "Apollo Spectra Hospital, R.A Puram, Chennai TN.",
    "city": "Chennai",
    "specialists": [
      "General Medicine"
    ],
    "insurance": [
      "Star Health",
      "PNB MetLife"
    ],
    "fee": 460,
    "rating": 4.5,
    "reviews": "Processed via AI: Highly recommended for General Medicine",
    "location": {
      "lat": 13.082152116917465,
      "lng": 80.27517311393974
    }
  },
  {
    "id": 113,
    "external_id": "11416",
    "name": "Appasamy Hospitals,Chennai TN.",
    "city": "Chennai",
    "specialists": [
      "General Medicine"
    ],
    "insurance": [
      "Star Health",
      "PNB MetLife"
    ],
    "fee": 344,
    "rating": 4,
    "reviews": "Processed via AI: Highly recommended for General Medicine",
    "location": {
      "lat": 13.046489270707866,
      "lng": 80.31236214945558
    }
  },
  {
    "id": 114,
    "external_id": "11401",
    "name": "TN.",
    "city": "Chennai",
    "specialists": [
      "General Medicine"
    ],
    "insurance": [
      "Star Health",
      "PNB MetLife"
    ],
    "fee": 304,
    "rating": 4,
    "reviews": "Processed via AI: Highly recommended for General Medicine",
    "location": {
      "lat": 13.110127191969111,
      "lng": 80.23482785854196
    }
  },
  {
    "id": 115,
    "external_id": "11378",
    "name": "Balaji Medical Centre, Chennai DC.",
    "city": "Chennai",
    "specialists": [
      "General Medicine"
    ],
    "insurance": [
      "Star Health",
      "PNB MetLife"
    ],
    "fee": 547,
    "rating": 4.2,
    "reviews": "Processed via AI: Highly recommended for General Medicine",
    "location": {
      "lat": 13.124814898491788,
      "lng": 80.2397793102864
    }
  },
  {
    "id": 116,
    "external_id": "11372",
    "name": "Bharat Scans Royapettah, Chennai DC.",
    "city": "Chennai",
    "specialists": [
      "Radiologist"
    ],
    "insurance": [
      "Star Health",
      "PNB MetLife"
    ],
    "fee": 633,
    "rating": 3.7,
    "reviews": "Processed via AI: Highly recommended for Radiologist",
    "location": {
      "lat": 13.08926630505601,
      "lng": 80.25920227051039
    }
  },
  {
    "id": 117,
    "external_id": "11405",
    "name": "Bharathirajaa Speciality Hospital, Chennai TN.",
    "city": "Chennai",
    "specialists": [
      "General Medicine"
    ],
    "insurance": [
      "Star Health",
      "PNB MetLife"
    ],
    "fee": 623,
    "rating": 5,
    "reviews": "Processed via AI: Highly recommended for General Medicine",
    "location": {
      "lat": 13.12447961787728,
      "lng": 80.23335942849089
    }
  },
  {
    "id": 118,
    "external_id": "11407",
    "name": "Billroth Hospitals Shenoy Nagar, Chennai TN.",
    "city": "Chennai",
    "specialists": [
      "General Medicine"
    ],
    "insurance": [
      "Star Health",
      "PNB MetLife"
    ],
    "fee": 501,
    "rating": 4,
    "reviews": "Processed via AI: Highly recommended for General Medicine",
    "location": {
      "lat": 13.046193734580664,
      "lng": 80.27602887391363
    }
  },
  {
    "id": 119,
    "external_id": "11412",
    "name": "Billroth,Chennai TN.",
    "city": "Chennai",
    "specialists": [
      "General Medicine"
    ],
    "insurance": [
      "Star Health",
      "PNB MetLife"
    ],
    "fee": 659,
    "rating": 4.7,
    "reviews": "Processed via AI: Highly recommended for General Medicine",
    "location": {
      "lat": 13.042280208856253,
      "lng": 80.32029510204559
    }
  },
  {
    "id": 120,
    "external_id": "11398",
    "name": "Bloom Health Care, Chennai TN.",
    "city": "Chennai",
    "specialists": [
      "General Medicine"
    ],
    "insurance": [
      "Star Health",
      "PNB MetLife"
    ],
    "fee": 689,
    "rating": 4.8,
    "reviews": "Processed via AI: Highly recommended for General Medicine",
    "location": {
      "lat": 13.0816862090422,
      "lng": 80.27189456313457
    }
  },
  {
    "id": 121,
    "external_id": "11397",
    "name": "Cancer Institute Adyar,Chennai TN.",
    "city": "Chennai",
    "specialists": [
      "Oncologist"
    ],
    "insurance": [
      "Star Health",
      "PNB MetLife"
    ],
    "fee": 573,
    "rating": 3.9,
    "reviews": "Processed via AI: Highly recommended for Oncologist",
    "location": {
      "lat": 13.08708640473672,
      "lng": 80.30434812753461
    }
  },
  {
    "id": 122,
    "external_id": "11306",
    "name": "CCH, Adyar, Chennai TN.",
    "city": "Chennai",
    "specialists": [
      "General Medicine"
    ],
    "insurance": [
      "Star Health",
      "PNB MetLife"
    ],
    "fee": 471,
    "rating": 4.8,
    "reviews": "Processed via AI: Highly recommended for General Medicine",
    "location": {
      "lat": 13.111000976767253,
      "lng": 80.2749390823953
    }
  },
  {
    "id": 123,
    "external_id": "11303",
    "name": "CCH, Ayanavaram, Chennai TN.",
    "city": "Chennai",
    "specialists": [
      "General Medicine"
    ],
    "insurance": [
      "Star Health",
      "PNB MetLife"
    ],
    "fee": 380,
    "rating": 3.7,
    "reviews": "Processed via AI: Highly recommended for General Medicine",
    "location": {
      "lat": 13.034241300955165,
      "lng": 80.2913108608572
    }
  },
  {
    "id": 124,
    "external_id": "11305",
    "name": "CCH, Kodambakkam, Chennai TN.",
    "city": "Chennai",
    "specialists": [
      "General Medicine"
    ],
    "insurance": [
      "Star Health",
      "PNB MetLife"
    ],
    "fee": 528,
    "rating": 4,
    "reviews": "Processed via AI: Highly recommended for General Medicine",
    "location": {
      "lat": 13.117136665039194,
      "lng": 80.31696523301021
    }
  },
  {
    "id": 125,
    "external_id": "11311",
    "name": "CCH, Nungambakkam, Chennai TN.",
    "city": "Chennai",
    "specialists": [
      "General Medicine"
    ],
    "insurance": [
      "Star Health",
      "PNB MetLife"
    ],
    "fee": 790,
    "rating": 4.5,
    "reviews": "Processed via AI: Highly recommended for General Medicine",
    "location": {
      "lat": 13.08335440798591,
      "lng": 80.29931243512264
    }
  },
  {
    "id": 126,
    "external_id": "11312",
    "name": "CCH, Perambur, Chennai TN.",
    "city": "Chennai",
    "specialists": [
      "General Medicine"
    ],
    "insurance": [
      "Star Health",
      "PNB MetLife"
    ],
    "fee": 468,
    "rating": 4.6,
    "reviews": "Processed via AI: Highly recommended for General Medicine",
    "location": {
      "lat": 13.079607796697886,
      "lng": 80.24877592840352
    }
  },
  {
    "id": 127,
    "external_id": "11307",
    "name": "CCH, Perumalpet, Chennai TN.",
    "city": "Chennai",
    "specialists": [
      "General Medicine"
    ],
    "insurance": [
      "Star Health",
      "PNB MetLife"
    ],
    "fee": 571,
    "rating": 4.6,
    "reviews": "Processed via AI: Highly recommended for General Medicine",
    "location": {
      "lat": 13.065181464136367,
      "lng": 80.26612898614084
    }
  },
  {
    "id": 128,
    "external_id": "11301",
    "name": "CCH, Royapuram, Chennai TN.",
    "city": "Chennai",
    "specialists": [
      "General Medicine"
    ],
    "insurance": [
      "Star Health",
      "PNB MetLife"
    ],
    "fee": 555,
    "rating": 3.7,
    "reviews": "Processed via AI: Highly recommended for General Medicine",
    "location": {
      "lat": 13.125319273844275,
      "lng": 80.30541092594139
    }
  },
  {
    "id": 129,
    "external_id": "11309",
    "name": "CCH, Saidapet, Chennai TN.",
    "city": "Chennai",
    "specialists": [
      "General Medicine"
    ],
    "insurance": [
      "Star Health",
      "PNB MetLife"
    ],
    "fee": 482,
    "rating": 4.6,
    "reviews": "Processed via AI: Highly recommended for General Medicine",
    "location": {
      "lat": 13.11607098888044,
      "lng": 80.23542184463822
    }
  },
  {
    "id": 130,
    "external_id": "11308",
    "name": "CCH, Shenoynagar, Chennai TN.",
    "city": "Chennai",
    "specialists": [
      "General Medicine"
    ],
    "insurance": [
      "Star Health",
      "PNB MetLife"
    ],
    "fee": 310,
    "rating": 4.5,
    "reviews": "Processed via AI: Highly recommended for General Medicine",
    "location": {
      "lat": 13.064529735316782,
      "lng": 80.26152220256368
    }
  },
  {
    "id": 131,
    "external_id": "11304",
    "name": "CCH, Teynampet, Chennai TN.",
    "city": "Chennai",
    "specialists": [
      "General Medicine"
    ],
    "insurance": [
      "Star Health",
      "PNB MetLife"
    ],
    "fee": 493,
    "rating": 3.7,
    "reviews": "Processed via AI: Highly recommended for General Medicine",
    "location": {
      "lat": 13.113817420630014,
      "lng": 80.22994103844745
    }
  },
  {
    "id": 132,
    "external_id": "11302",
    "name": "CCH, TVK Nagar, Chennai TN.",
    "city": "Chennai",
    "specialists": [
      "General Medicine"
    ],
    "insurance": [
      "Star Health",
      "PNB MetLife"
    ],
    "fee": 457,
    "rating": 3.9,
    "reviews": "Processed via AI: Highly recommended for General Medicine",
    "location": {
      "lat": 13.077541864264688,
      "lng": 80.31525732881342
    }
  },
  {
    "id": 133,
    "external_id": "11300",
    "name": "CCH,Tondiarpet, Chennai TN.",
    "city": "Chennai",
    "specialists": [
      "General Medicine"
    ],
    "insurance": [
      "Star Health",
      "PNB MetLife"
    ],
    "fee": 635,
    "rating": 4.2,
    "reviews": "Processed via AI: Highly recommended for General Medicine",
    "location": {
      "lat": 13.06069942688768,
      "lng": 80.24789790023837
    }
  },
  {
    "id": 134,
    "external_id": "11471",
    "name": "Chennai  Health Foundation Hospital, Chennai, TN.",
    "city": "CHENNAI",
    "specialists": [
      "General Medicine"
    ],
    "insurance": [
      "Star Health",
      "PNB MetLife"
    ],
    "fee": 633,
    "rating": 4.4,
    "reviews": "Processed via AI: Highly recommended for General Medicine",
    "location": {
      "lat": 11.155525420268114,
      "lng": 78.64219947874189
    }
  },
  {
    "id": 135,
    "external_id": "11462",
    "name": "Chennai Breast Centre, Chennai TN.",
    "city": "Chennai",
    "specialists": [
      "General Medicine"
    ],
    "insurance": [
      "Star Health",
      "PNB MetLife"
    ],
    "fee": 347,
    "rating": 4,
    "reviews": "Processed via AI: Highly recommended for General Medicine",
    "location": {
      "lat": 13.065421500395473,
      "lng": 80.3165414700618
    }
  },
  {
    "id": 136,
    "external_id": "11429",
    "name": "Chennai National Hospital, Chennai TN.",
    "city": "Chennai",
    "specialists": [
      "General Medicine"
    ],
    "insurance": [
      "Star Health",
      "PNB MetLife"
    ],
    "fee": 455,
    "rating": 4.1,
    "reviews": "Processed via AI: Highly recommended for General Medicine",
    "location": {
      "lat": 13.059257756183666,
      "lng": 80.27882450068948
    }
  },
  {
    "id": 137,
    "external_id": "11450",
    "name": "Chennai Orthopedic Centre, Chennai TN.",
    "city": "Chennai",
    "specialists": [
      "Orthopedic Surgeon"
    ],
    "insurance": [
      "Star Health",
      "PNB MetLife"
    ],
    "fee": 755,
    "rating": 4.9,
    "reviews": "Processed via AI: Highly recommended for Orthopedic Surgeon",
    "location": {
      "lat": 13.036553042104028,
      "lng": 80.3095349595638
    }
  },
  {
    "id": 138,
    "external_id": "13090",
    "name": "Chennai",
    "city": "GOI",
    "specialists": [
      "General Medicine"
    ],
    "insurance": [
      "Star Health",
      "PNB MetLife",
      "CMCHIS (Govt Scheme)"
    ],
    "fee": 0,
    "rating": 3.9,
    "reviews": "Processed via AI: Highly recommended for General Medicine",
    "location": {
      "lat": 11.135878125661886,
      "lng": 78.67556408343555
    }
  },
  {
    "id": 139,
    "external_id": "11310",
    "name": "Communicable Disease Hos,Tondiarpet, Chennai TN.",
    "city": "Chennai",
    "specialists": [
      "General Medicine"
    ],
    "insurance": [
      "Star Health",
      "PNB MetLife"
    ],
    "fee": 672,
    "rating": 4,
    "reviews": "Processed via AI: Highly recommended for General Medicine",
    "location": {
      "lat": 13.127175822185231,
      "lng": 80.28901720329903
    }
  },
  {
    "id": 140,
    "external_id": "11391",
    "name": "CSI KALYANI GENERAL HOSPITAL, Chennai TN.",
    "city": "Chennai",
    "specialists": [
      "General Physician",
      "Cardiologist",
      "Orthopedic"
    ],
    "insurance": [
      "Star Health",
      "PNB MetLife"
    ],
    "fee": 526,
    "rating": 3.7,
    "reviews": "Processed via AI: Highly recommended for General Physician",
    "location": {
      "lat": 13.050079984956074,
      "lng": 80.22564940862347
    }
  },
  {
    "id": 141,
    "external_id": "11319",
    "name": "DEIC ,Chennai TN.",
    "city": "Chennai",
    "specialists": [
      "General Medicine"
    ],
    "insurance": [
      "Star Health",
      "PNB MetLife"
    ],
    "fee": 535,
    "rating": 3.8,
    "reviews": "Processed via AI: Highly recommended for General Medicine",
    "location": {
      "lat": 13.051702931037491,
      "lng": 80.25842937617782
    }
  },
  {
    "id": 142,
    "external_id": "11467",
    "name": "Devraj Manickchand Maternity Hospital, Chennai,TN.",
    "city": "CHENNAI",
    "specialists": [
      "Gynecologist"
    ],
    "insurance": [
      "Star Health",
      "PNB MetLife"
    ],
    "fee": 768,
    "rating": 3.5,
    "reviews": "Processed via AI: Highly recommended for Gynecologist",
    "location": {
      "lat": 11.166837924238843,
      "lng": 78.66308396133108
    }
  },
  {
    "id": 143,
    "external_id": "11317",
    "name": "District Diff. Abled Welfare Off,North Chennai TN.",
    "city": "Chennai",
    "specialists": [
      "General Medicine"
    ],
    "insurance": [
      "Star Health",
      "PNB MetLife"
    ],
    "fee": 638,
    "rating": 3.5,
    "reviews": "Processed via AI: Highly recommended for General Medicine",
    "location": {
      "lat": 13.117711854312937,
      "lng": 80.28409737753061
    }
  },
  {
    "id": 144,
    "external_id": "11315",
    "name": "District Diff. abled welfare office,Chennai TN.",
    "city": "Chennai",
    "specialists": [
      "General Medicine"
    ],
    "insurance": [
      "Star Health",
      "PNB MetLife"
    ],
    "fee": 430,
    "rating": 3.9,
    "reviews": "Processed via AI: Highly recommended for General Medicine",
    "location": {
      "lat": 13.128531338832854,
      "lng": 80.24186642895717
    }
  },
  {
    "id": 145,
    "external_id": "11374",
    "name": "DOC Medical Services PVT LTD,Chennai DC.",
    "city": "Chennai",
    "specialists": [
      "General Medicine"
    ],
    "insurance": [
      "Star Health",
      "PNB MetLife"
    ],
    "fee": 766,
    "rating": 4.1,
    "reviews": "Processed via AI: Highly recommended for General Medicine",
    "location": {
      "lat": 13.077603541264889,
      "lng": 80.29721262948537
    }
  },
  {
    "id": 146,
    "external_id": "11406",
    "name": "Dr Mehtas Hospitals Chetpet,Chennai TN.",
    "city": "Chennai",
    "specialists": [
      "General Medicine"
    ],
    "insurance": [
      "Star Health",
      "PNB MetLife"
    ],
    "fee": 614,
    "rating": 3.7,
    "reviews": "Processed via AI: Highly recommended for General Medicine",
    "location": {
      "lat": 13.06421631171005,
      "lng": 80.27674685218774
    }
  },
  {
    "id": 147,
    "external_id": "11404",
    "name": "Dr Rai Memorial Cancer Institute,Chennai TN.",
    "city": "Chennai",
    "specialists": [
      "Oncologist"
    ],
    "insurance": [
      "Star Health",
      "PNB MetLife"
    ],
    "fee": 356,
    "rating": 4.2,
    "reviews": "Processed via AI: Highly recommended for Oncologist",
    "location": {
      "lat": 13.06219303348787,
      "lng": 80.29103426629226
    }
  },
  {
    "id": 148,
    "external_id": "11411",
    "name": "Dr. Agarwals Eye Hospital,Chennai TN.",
    "city": "Chennai",
    "specialists": [
      "Ophthalmologist"
    ],
    "insurance": [
      "Star Health",
      "PNB MetLife"
    ],
    "fee": 722,
    "rating": 4.1,
    "reviews": "Processed via AI: Highly recommended for Ophthalmologist",
    "location": {
      "lat": 13.089068946553532,
      "lng": 80.2890982643481
    }
  },
  {
    "id": 149,
    "external_id": "11418",
    "name": "Faith Multispecialty Hospital,Chennai TN.",
    "city": "Chennai",
    "specialists": [
      "General Physician",
      "Cardiologist",
      "Orthopedic"
    ],
    "insurance": [
      "Star Health",
      "PNB MetLife"
    ],
    "fee": 687,
    "rating": 4.5,
    "reviews": "Processed via AI: Highly recommended for General Physician",
    "location": {
      "lat": 13.037039274118941,
      "lng": 80.30989425672324
    }
  },
  {
    "id": 150,
    "external_id": "11456",
    "name": "FIRM Hospitals, Chennai TN.",
    "city": "Chennai",
    "specialists": [
      "General Medicine"
    ],
    "insurance": [
      "Star Health",
      "PNB MetLife"
    ],
    "fee": 729,
    "rating": 4.7,
    "reviews": "Processed via AI: Highly recommended for General Medicine",
    "location": {
      "lat": 13.050980938392579,
      "lng": 80.2286713292562
    }
  },
  {
    "id": 151,
    "external_id": "11445",
    "name": "Fortis Health Care ltd,Vadapalani Chennai TN.",
    "city": "Chennai",
    "specialists": [
      "General Medicine"
    ],
    "insurance": [
      "Star Health",
      "PNB MetLife"
    ],
    "fee": 608,
    "rating": 4.8,
    "reviews": "Processed via AI: Highly recommended for General Medicine",
    "location": {
      "lat": 13.05956909804159,
      "lng": 80.25013823180208
    }
  },
  {
    "id": 152,
    "external_id": "11446",
    "name": "Fortis Health Care ltd,Vadapalani Chennai TN.",
    "city": "Chennai",
    "specialists": [
      "General Medicine"
    ],
    "insurance": [
      "Star Health",
      "PNB MetLife"
    ],
    "fee": 770,
    "rating": 3.7,
    "reviews": "Processed via AI: Highly recommended for General Medicine",
    "location": {
      "lat": 13.036339655873334,
      "lng": 80.2669170436504
    }
  },
  {
    "id": 153,
    "external_id": "11375",
    "name": "Gemini Scans Pvt Ltd,Vadapalani,Chennai DC.",
    "city": "Chennai",
    "specialists": [
      "Radiologist"
    ],
    "insurance": [
      "Star Health",
      "PNB MetLife"
    ],
    "fee": 722,
    "rating": 3.6,
    "reviews": "Processed via AI: Highly recommended for Radiologist",
    "location": {
      "lat": 13.118097740619948,
      "lng": 80.26835145513571
    }
  },
  {
    "id": 154,
    "external_id": "11459",
    "name": "GKM Hospital, Purasaiwakam, Chennai TN.",
    "city": "Chennai",
    "specialists": [
      "General Medicine"
    ],
    "insurance": [
      "Star Health",
      "PNB MetLife"
    ],
    "fee": 732,
    "rating": 4.6,
    "reviews": "Processed via AI: Highly recommended for General Medicine",
    "location": {
      "lat": 13.09021837906628,
      "lng": 80.30232030361262
    }
  },
  {
    "id": 155,
    "external_id": "11334",
    "name": "Government Dental College, Chennai TN.",
    "city": "Chennai",
    "specialists": [
      "Dentist"
    ],
    "insurance": [
      "Star Health",
      "PNB MetLife",
      "CMCHIS (Govt Scheme)"
    ],
    "fee": 0,
    "rating": 3.7,
    "reviews": "Processed via AI: Highly recommended for Dentist",
    "location": {
      "lat": 13.047941757725384,
      "lng": 80.29559634958144
    }
  },
  {
    "id": 156,
    "external_id": "11338",
    "name": "Government Peripheral Hosp,KK Nagar,Chennai TN.",
    "city": "Chennai",
    "specialists": [
      "General Medicine"
    ],
    "insurance": [
      "Star Health",
      "PNB MetLife",
      "CMCHIS (Govt Scheme)"
    ],
    "fee": 0,
    "rating": 4,
    "reviews": "Processed via AI: Highly recommended for General Medicine",
    "location": {
      "lat": 13.129810835958068,
      "lng": 80.30909159046017
    }
  },
  {
    "id": 157,
    "external_id": "11337",
    "name": "Government Peripheral Hosp,Periyar Ngr,Chennai TN.",
    "city": "Chennai",
    "specialists": [
      "General Medicine"
    ],
    "insurance": [
      "Star Health",
      "PNB MetLife",
      "CMCHIS (Govt Scheme)"
    ],
    "fee": 0,
    "rating": 4.4,
    "reviews": "Processed via AI: Highly recommended for General Medicine",
    "location": {
      "lat": 13.097732721638467,
      "lng": 80.24717832289981
    }
  },
  {
    "id": 158,
    "external_id": "11328",
    "name": "Government Peripheral Hosp,Tondiarpet,Chennai TN.",
    "city": "Chennai",
    "specialists": [
      "General Medicine"
    ],
    "insurance": [
      "Star Health",
      "PNB MetLife",
      "CMCHIS (Govt Scheme)"
    ],
    "fee": 0,
    "rating": 5,
    "reviews": "Processed via AI: Highly recommended for General Medicine",
    "location": {
      "lat": 13.099561599156427,
      "lng": 80.31049122427878
    }
  },
  {
    "id": 159,
    "external_id": "11351",
    "name": "Govt Alandur UPHC, Chennai TN.",
    "city": "Chennai",
    "specialists": [
      "General Medicine"
    ],
    "insurance": [
      "Star Health",
      "PNB MetLife",
      "CMCHIS (Govt Scheme)"
    ],
    "fee": 0,
    "rating": 4.5,
    "reviews": "Processed via AI: Highly recommended for General Medicine",
    "location": {
      "lat": 13.04824316569834,
      "lng": 80.22740355303229
    }
  },
  {
    "id": 160,
    "external_id": "11347",
    "name": "Govt Ayanavaram UCHC, Chennai TN.",
    "city": "Chennai",
    "specialists": [
      "General Medicine"
    ],
    "insurance": [
      "Star Health",
      "PNB MetLife",
      "CMCHIS (Govt Scheme)"
    ],
    "fee": 0,
    "rating": 4.7,
    "reviews": "Processed via AI: Highly recommended for General Medicine",
    "location": {
      "lat": 13.111423829984236,
      "lng": 80.30890486735076
    }
  },
  {
    "id": 161,
    "external_id": "11343",
    "name": "Govt CHC Adayar,  Chennai TN.",
    "city": "Chennai",
    "specialists": [
      "General Medicine"
    ],
    "insurance": [
      "Star Health",
      "PNB MetLife",
      "CMCHIS (Govt Scheme)"
    ],
    "fee": 0,
    "rating": 4.5,
    "reviews": "Processed via AI: Highly recommended for General Medicine",
    "location": {
      "lat": 13.066713217653811,
      "lng": 80.25889664713284
    }
  },
  {
    "id": 162,
    "external_id": "11344",
    "name": "Govt CHC RK Nagar,  Chennai TN.",
    "city": "Chennai",
    "specialists": [
      "General Medicine"
    ],
    "insurance": [
      "Star Health",
      "PNB MetLife",
      "CMCHIS (Govt Scheme)"
    ],
    "fee": 0,
    "rating": 4.8,
    "reviews": "Processed via AI: Highly recommended for General Medicine",
    "location": {
      "lat": 13.086442805477773,
      "lng": 80.31210646217062
    }
  },
  {
    "id": 163,
    "external_id": "11341",
    "name": "Govt Hospital,Ayanavaram ESI, Chennai TN. ",
    "city": "Chennai",
    "specialists": [
      "General Medicine"
    ],
    "insurance": [
      "Star Health",
      "PNB MetLife",
      "CMCHIS (Govt Scheme)"
    ],
    "fee": 0,
    "rating": 3.9,
    "reviews": "Processed via AI: Highly recommended for General Medicine",
    "location": {
      "lat": 13.094609801522648,
      "lng": 80.25678796775075
    }
  },
  {
    "id": 164,
    "external_id": "11353",
    "name": "Govt INJAMBAKKAM UCHC, Chennai TN.",
    "city": "Chennai",
    "specialists": [
      "General Medicine"
    ],
    "insurance": [
      "Star Health",
      "PNB MetLife",
      "CMCHIS (Govt Scheme)"
    ],
    "fee": 0,
    "rating": 4.1,
    "reviews": "Processed via AI: Highly recommended for General Medicine",
    "location": {
      "lat": 13.124372312804768,
      "lng": 80.2821575888059
    }
  },
  {
    "id": 165,
    "external_id": "11339",
    "name": "Govt Institute of mental health, Chennai TN.",
    "city": "Chennai",
    "specialists": [
      "General Medicine"
    ],
    "insurance": [
      "Star Health",
      "PNB MetLife",
      "CMCHIS (Govt Scheme)"
    ],
    "fee": 0,
    "rating": 4.4,
    "reviews": "Processed via AI: Highly recommended for General Medicine",
    "location": {
      "lat": 13.073788349541339,
      "lng": 80.24910288012533
    }
  },
  {
    "id": 166,
    "external_id": "11333",
    "name": "Govt Kalaignar Centenary Spr Spl Hosp, Chennai TN.",
    "city": "Chennai",
    "specialists": [
      "General Medicine"
    ],
    "insurance": [
      "Star Health",
      "PNB MetLife",
      "CMCHIS (Govt Scheme)"
    ],
    "fee": 0,
    "rating": 4.1,
    "reviews": "Processed via AI: Highly recommended for General Medicine",
    "location": {
      "lat": 13.03294441274611,
      "lng": 80.22611882024425
    }
  },
  {
    "id": 167,
    "external_id": "11348",
    "name": "Govt Manjambakkam UCHC, Chennai TN.",
    "city": "Chennai",
    "specialists": [
      "General Medicine"
    ],
    "insurance": [
      "Star Health",
      "PNB MetLife",
      "CMCHIS (Govt Scheme)"
    ],
    "fee": 0,
    "rating": 3.8,
    "reviews": "Processed via AI: Highly recommended for General Medicine",
    "location": {
      "lat": 13.10601763313427,
      "lng": 80.29655611461087
    }
  },
  {
    "id": 168,
    "external_id": "11358",
    "name": "Govt Mirsahibpet UCHC, Chennai TN.",
    "city": "Chennai",
    "specialists": [
      "General Medicine"
    ],
    "insurance": [
      "Star Health",
      "PNB MetLife",
      "CMCHIS (Govt Scheme)"
    ],
    "fee": 0,
    "rating": 4.5,
    "reviews": "Processed via AI: Highly recommended for General Medicine",
    "location": {
      "lat": 13.07859837317471,
      "lng": 80.30614762740208
    }
  },
  {
    "id": 169,
    "external_id": "11331",
    "name": "Govt Opthomology Hospital,Chennai TN.",
    "city": "Chennai",
    "specialists": [
      "General Medicine"
    ],
    "insurance": [
      "Star Health",
      "PNB MetLife",
      "CMCHIS (Govt Scheme)"
    ],
    "fee": 0,
    "rating": 4.9,
    "reviews": "Processed via AI: Highly recommended for General Medicine",
    "location": {
      "lat": 13.085956714270642,
      "lng": 80.30640234774228
    }
  },
  {
    "id": 170,
    "external_id": "11355",
    "name": "Govt PADI UCHC, Chennai TN.",
    "city": "Chennai",
    "specialists": [
      "General Medicine"
    ],
    "insurance": [
      "Star Health",
      "PNB MetLife",
      "CMCHIS (Govt Scheme)"
    ],
    "fee": 0,
    "rating": 4.5,
    "reviews": "Processed via AI: Highly recommended for General Medicine",
    "location": {
      "lat": 13.11569662930906,
      "lng": 80.32016336480936
    }
  },
  {
    "id": 171,
    "external_id": "11340",
    "name": "Govt Peripheral Hospital, Saidapet,Chennai TN.",
    "city": "Chennai",
    "specialists": [
      "General Medicine"
    ],
    "insurance": [
      "Star Health",
      "PNB MetLife",
      "CMCHIS (Govt Scheme)"
    ],
    "fee": 0,
    "rating": 4.7,
    "reviews": "Processed via AI: Highly recommended for General Medicine",
    "location": {
      "lat": 13.059417556614617,
      "lng": 80.25380081648767
    }
  },
  {
    "id": 172,
    "external_id": "11350",
    "name": "Govt Perungudi UCHC, Chennai TN.",
    "city": "Chennai",
    "specialists": [
      "General Medicine"
    ],
    "insurance": [
      "Star Health",
      "PNB MetLife",
      "CMCHIS (Govt Scheme)"
    ],
    "fee": 0,
    "rating": 4.1,
    "reviews": "Processed via AI: Highly recommended for General Medicine",
    "location": {
      "lat": 13.091720114724318,
      "lng": 80.31052607880402
    }
  },
  {
    "id": 173,
    "external_id": "11354",
    "name": "Govt PORUR UCHC, Chennai TN.",
    "city": "Chennai",
    "specialists": [
      "General Medicine"
    ],
    "insurance": [
      "Star Health",
      "PNB MetLife",
      "CMCHIS (Govt Scheme)"
    ],
    "fee": 0,
    "rating": 3.8,
    "reviews": "Processed via AI: Highly recommended for General Medicine",
    "location": {
      "lat": 13.072465726182207,
      "lng": 80.31918618482624
    }
  },
  {
    "id": 174,
    "external_id": "11345",
    "name": "Govt Pulianthope CHC,Chennai TN.",
    "city": "Chennai",
    "specialists": [
      "General Medicine"
    ],
    "insurance": [
      "Star Health",
      "PNB MetLife",
      "CMCHIS (Govt Scheme)"
    ],
    "fee": 0,
    "rating": 4.9,
    "reviews": "Processed via AI: Highly recommended for General Medicine",
    "location": {
      "lat": 13.085180670158799,
      "lng": 80.23857274594681
    }
  },
  {
    "id": 175,
    "external_id": "11349",
    "name": "Govt Puzhal CHC, Chennai TN.",
    "city": "Chennai",
    "specialists": [
      "General Medicine"
    ],
    "insurance": [
      "Star Health",
      "PNB MetLife",
      "CMCHIS (Govt Scheme)"
    ],
    "fee": 0,
    "rating": 3.8,
    "reviews": "Processed via AI: Highly recommended for General Medicine",
    "location": {
      "lat": 13.102258804336218,
      "lng": 80.23163055433149
    }
  },
  {
    "id": 176,
    "external_id": "11357",
    "name": "Govt Sanjeevarayanpet UCHC, Chennai TN.",
    "city": "Chennai",
    "specialists": [
      "General Medicine"
    ],
    "insurance": [
      "Star Health",
      "PNB MetLife",
      "CMCHIS (Govt Scheme)"
    ],
    "fee": 0,
    "rating": 4.1,
    "reviews": "Processed via AI: Highly recommended for General Medicine",
    "location": {
      "lat": 13.115947268116114,
      "lng": 80.31980115117577
    }
  },
  {
    "id": 177,
    "external_id": "11356",
    "name": "Govt Thiruvottiyur UCHC, Chennai TN.",
    "city": "Chennai",
    "specialists": [
      "General Medicine"
    ],
    "insurance": [
      "Star Health",
      "PNB MetLife",
      "CMCHIS (Govt Scheme)"
    ],
    "fee": 0,
    "rating": 5,
    "reviews": "Processed via AI: Highly recommended for General Medicine",
    "location": {
      "lat": 13.090277551076019,
      "lng": 80.31781953454319
    }
  },
  {
    "id": 178,
    "external_id": "11352",
    "name": "Govt VADAPALANI UCHC, Chennai TN.",
    "city": "Chennai",
    "specialists": [
      "General Medicine"
    ],
    "insurance": [
      "Star Health",
      "PNB MetLife",
      "CMCHIS (Govt Scheme)"
    ],
    "fee": 0,
    "rating": 3.8,
    "reviews": "Processed via AI: Highly recommended for General Medicine",
    "location": {
      "lat": 13.067868783238646,
      "lng": 80.2757459761658
    }
  },
  {
    "id": 179,
    "external_id": "11314",
    "name": "Govt Vyasarpadi UPHC TANKER Foundation,Chennai TN.",
    "city": "Chennai",
    "specialists": [
      "General Medicine"
    ],
    "insurance": [
      "Star Health",
      "PNB MetLife"
    ],
    "fee": 419,
    "rating": 4.2,
    "reviews": "Processed via AI: Highly recommended for General Medicine",
    "location": {
      "lat": 13.042622226939788,
      "lng": 80.24318631773812
    }
  },
  {
    "id": 180,
    "external_id": "11332",
    "name": "Govt. Omandhurar Medical coll and hosp,Chennai TN.",
    "city": "Chennai",
    "specialists": [
      "General Medicine"
    ],
    "insurance": [
      "Star Health",
      "PNB MetLife",
      "CMCHIS (Govt Scheme)"
    ],
    "fee": 0,
    "rating": 4.4,
    "reviews": "Processed via AI: Highly recommended for General Medicine",
    "location": {
      "lat": 13.042572572060504,
      "lng": 80.28194122138818
    }
  },
  {
    "id": 181,
    "external_id": "11318",
    "name": "Govt. OSTC, Kannagi Nagar, Chennai, TN.",
    "city": "Chennai",
    "specialists": [
      "General Medicine"
    ],
    "insurance": [
      "Star Health",
      "PNB MetLife"
    ],
    "fee": 478,
    "rating": 4.2,
    "reviews": "Processed via AI: Highly recommended for General Medicine",
    "location": {
      "lat": 13.099349373021179,
      "lng": 80.31187969082205
    }
  },
  {
    "id": 182,
    "external_id": "11329",
    "name": "Govt. Royapettah Hospital, Royapetta,Chennai TN.",
    "city": "Chennai",
    "specialists": [
      "General Medicine"
    ],
    "insurance": [
      "Star Health",
      "PNB MetLife",
      "CMCHIS (Govt Scheme)"
    ],
    "fee": 0,
    "rating": 4.2,
    "reviews": "Processed via AI: Highly recommended for General Medicine",
    "location": {
      "lat": 13.051440988178129,
      "lng": 80.28752187281579
    }
  },
  {
    "id": 183,
    "external_id": "11322",
    "name": "Govt. Stanley Medical College Hospital,Chennai TN.",
    "city": "Chennai",
    "specialists": [
      "General Medicine"
    ],
    "insurance": [
      "Star Health",
      "PNB MetLife",
      "CMCHIS (Govt Scheme)"
    ],
    "fee": 0,
    "rating": 4.5,
    "reviews": "Processed via AI: Highly recommended for General Medicine",
    "location": {
      "lat": 13.057306787915596,
      "lng": 80.22967438857361
    }
  },
  {
    "id": 184,
    "external_id": "11323",
    "name": "Govt.Kilpauk Medical CollegeHospitalChennai,TN.",
    "city": "Chennai",
    "specialists": [
      "General Medicine"
    ],
    "insurance": [
      "Star Health",
      "PNB MetLife",
      "CMCHIS (Govt Scheme)"
    ],
    "fee": 0,
    "rating": 3.6,
    "reviews": "Processed via AI: Highly recommended for General Medicine",
    "location": {
      "lat": 13.103720687231787,
      "lng": 80.247503629035
    }
  },
  {
    "id": 185,
    "external_id": "11321",
    "name": "Govt.Super Speciality Hospital,Omandur Chennai TN.",
    "city": "Chennai",
    "specialists": [
      "General Medicine"
    ],
    "insurance": [
      "Star Health",
      "PNB MetLife",
      "CMCHIS (Govt Scheme)"
    ],
    "fee": 0,
    "rating": 4.1,
    "reviews": "Processed via AI: Highly recommended for General Medicine",
    "location": {
      "lat": 13.048577919842968,
      "lng": 80.23389842418064
    }
  },
  {
    "id": 186,
    "external_id": "11336",
    "name": "GOVT.TB HOSPITAL OTTERI , CHENNAI TN.",
    "city": "Chennai",
    "specialists": [
      "General Medicine"
    ],
    "insurance": [
      "Star Health",
      "PNB MetLife",
      "CMCHIS (Govt Scheme)"
    ],
    "fee": 0,
    "rating": 4.1,
    "reviews": "Processed via AI: Highly recommended for General Medicine",
    "location": {
      "lat": 13.055442109829375,
      "lng": 80.31522451029682
    }
  },
  {
    "id": 187,
    "external_id": "11342",
    "name": "Govt.UPHC Kondithop ,Chennai TN.",
    "city": "Chennai",
    "specialists": [
      "General Medicine"
    ],
    "insurance": [
      "Star Health",
      "PNB MetLife",
      "CMCHIS (Govt Scheme)"
    ],
    "fee": 0,
    "rating": 4,
    "reviews": "Processed via AI: Highly recommended for General Medicine",
    "location": {
      "lat": 13.046631829379255,
      "lng": 80.26342071204321
    }
  },
  {
    "id": 188,
    "external_id": "11381",
    "name": "Healthcare global enterprises Ltd, Chennai DC. ",
    "city": "Chennai",
    "specialists": [
      "General Medicine"
    ],
    "insurance": [
      "Star Health",
      "PNB MetLife"
    ],
    "fee": 496,
    "rating": 3.8,
    "reviews": "Processed via AI: Highly recommended for General Medicine",
    "location": {
      "lat": 13.059510830150437,
      "lng": 80.26382658842641
    }
  },
  {
    "id": 189,
    "external_id": "11443",
    "name": "Hycare Super Speciality Hospital, Chennai TN.",
    "city": "Chennai",
    "specialists": [
      "General Medicine"
    ],
    "insurance": [
      "Star Health",
      "PNB MetLife"
    ],
    "fee": 639,
    "rating": 4.2,
    "reviews": "Processed via AI: Highly recommended for General Medicine",
    "location": {
      "lat": 13.06891529385305,
      "lng": 80.3172787244409
    }
  },
  {
    "id": 190,
    "external_id": "11326",
    "name": "ICH,Egmore,Chennai TN.",
    "city": "Chennai",
    "specialists": [
      "General Medicine"
    ],
    "insurance": [
      "Star Health",
      "PNB MetLife",
      "CMCHIS (Govt Scheme)"
    ],
    "fee": 0,
    "rating": 4.7,
    "reviews": "Processed via AI: Highly recommended for General Medicine",
    "location": {
      "lat": 13.12342025119463,
      "lng": 80.2943636064462
    }
  },
  {
    "id": 191,
    "external_id": "11325",
    "name": "IOG,Egmore,Chennai TN.",
    "city": "Chennai",
    "specialists": [
      "General Medicine"
    ],
    "insurance": [
      "Star Health",
      "PNB MetLife",
      "CMCHIS (Govt Scheme)"
    ],
    "fee": 0,
    "rating": 4.4,
    "reviews": "Processed via AI: Highly recommended for General Medicine",
    "location": {
      "lat": 13.099805398708538,
      "lng": 80.30303483686967
    }
  },
  {
    "id": 192,
    "external_id": "11452",
    "name": "Iswarya Fertility, Adyar, Chennai TN.",
    "city": "Chennai",
    "specialists": [
      "General Medicine"
    ],
    "insurance": [
      "Star Health",
      "PNB MetLife"
    ],
    "fee": 409,
    "rating": 3.6,
    "reviews": "Processed via AI: Highly recommended for General Medicine",
    "location": {
      "lat": 13.034668851766234,
      "lng": 80.29524868767619
    }
  },
  {
    "id": 193,
    "external_id": "11379",
    "name": "Jeenomics Laboratory Private Ltd, Chennai DC.",
    "city": "Chennai",
    "specialists": [
      "General Medicine"
    ],
    "insurance": [
      "Star Health",
      "PNB MetLife"
    ],
    "fee": 470,
    "rating": 4.6,
    "reviews": "Processed via AI: Highly recommended for General Medicine",
    "location": {
      "lat": 13.07193348566778,
      "lng": 80.28707677925141
    }
  },
  {
    "id": 194,
    "external_id": "11371",
    "name": "Jeevan Stem Cell Foundation, Chennai DC.",
    "city": "Chennai",
    "specialists": [
      "General Medicine"
    ],
    "insurance": [
      "Star Health",
      "PNB MetLife"
    ],
    "fee": 324,
    "rating": 4.1,
    "reviews": "Processed via AI: Highly recommended for General Medicine",
    "location": {
      "lat": 13.072375163795838,
      "lng": 80.2548708655868
    }
  },
  {
    "id": 195,
    "external_id": "11438",
    "name": "Kanchi Kamakoti Child Trust Hospital ,Chennai TN.",
    "city": "Chennai",
    "specialists": [
      "General Medicine"
    ],
    "insurance": [
      "Star Health",
      "PNB MetLife"
    ],
    "fee": 364,
    "rating": 4.6,
    "reviews": "Processed via AI: Highly recommended for General Medicine",
    "location": {
      "lat": 13.071463190018632,
      "lng": 80.31814194721741
    }
  },
  {
    "id": 196,
    "external_id": "11400",
    "name": "Kauvery Hospital Chennai,TN.",
    "city": "Chennai",
    "specialists": [
      "General Medicine"
    ],
    "insurance": [
      "Star Health",
      "PNB MetLife"
    ],
    "fee": 595,
    "rating": 4.2,
    "reviews": "Processed via AI: Highly recommended for General Medicine",
    "location": {
      "lat": 13.041439990620475,
      "lng": 80.3111439961526
    }
  },
  {
    "id": 197,
    "external_id": "11466",
    "name": "Kauvery Hospital, Vadapalani, Chennai, TN.",
    "city": "Chennai",
    "specialists": [
      "General Medicine"
    ],
    "insurance": [
      "Star Health",
      "PNB MetLife"
    ],
    "fee": 463,
    "rating": 3.7,
    "reviews": "Processed via AI: Highly recommended for General Medicine",
    "location": {
      "lat": 13.103271986795457,
      "lng": 80.23888042906326
    }
  },
  {
    "id": 198,
    "external_id": "11478",
    "name": "Kewalchand Mohanabai Dialysis Centr, Chennai TN.",
    "city": "Chennai",
    "specialists": [
      "Nephrologist"
    ],
    "insurance": [
      "Star Health",
      "PNB MetLife"
    ],
    "fee": 623,
    "rating": 4.3,
    "reviews": "Processed via AI: Highly recommended for Nephrologist",
    "location": {
      "lat": 13.082652137897968,
      "lng": 80.24697639890194
    }
  },
  {
    "id": 199,
    "external_id": "11324",
    "name": "KGH,Chennai TN.",
    "city": "Chennai",
    "specialists": [
      "General Medicine"
    ],
    "insurance": [
      "Star Health",
      "PNB MetLife",
      "CMCHIS (Govt Scheme)"
    ],
    "fee": 0,
    "rating": 4.4,
    "reviews": "Processed via AI: Highly recommended for General Medicine",
    "location": {
      "lat": 13.107297353948372,
      "lng": 80.23818150664917
    }
  },
  {
    "id": 200,
    "external_id": "11479",
    "name": "Khivraj Chordia Memorial Dialysis, Chennai TN. ",
    "city": "Chennai",
    "specialists": [
      "Nephrologist"
    ],
    "insurance": [
      "Star Health",
      "PNB MetLife"
    ],
    "fee": 797,
    "rating": 5,
    "reviews": "Processed via AI: Highly recommended for Nephrologist",
    "location": {
      "lat": 13.040997713217534,
      "lng": 80.26386028208634
    }
  },
  {
    "id": 201,
    "external_id": "11316",
    "name": "KK Nagar Rehabilitation Centre,DDAWO,Chennai TN.",
    "city": "Chennai",
    "specialists": [
      "General Medicine"
    ],
    "insurance": [
      "Star Health",
      "PNB MetLife"
    ],
    "fee": 754,
    "rating": 4.9,
    "reviews": "Processed via AI: Highly recommended for General Medicine",
    "location": {
      "lat": 13.122963365498887,
      "lng": 80.29050650025866
    }
  },
  {
    "id": 202,
    "external_id": "11409",
    "name": "KKR ENT Hospital And Institute, Chennai TN.",
    "city": "Chennai",
    "specialists": [
      "General Medicine"
    ],
    "insurance": [
      "Star Health",
      "PNB MetLife"
    ],
    "fee": 742,
    "rating": 4.8,
    "reviews": "Processed via AI: Highly recommended for General Medicine",
    "location": {
      "lat": 13.097888690974324,
      "lng": 80.28419947403019
    }
  },
  {
    "id": 203,
    "external_id": "11458",
    "name": "KL Hospital, Neelangarai, Chennai TN.",
    "city": "Chennai",
    "specialists": [
      "General Medicine"
    ],
    "insurance": [
      "Star Health",
      "PNB MetLife"
    ],
    "fee": 716,
    "rating": 4.8,
    "reviews": "Processed via AI: Highly recommended for General Medicine",
    "location": {
      "lat": 13.088512174757934,
      "lng": 80.27239716963226
    }
  },
  {
    "id": 204,
    "external_id": "11463",
    "name": "Kolathur Dialysis and Medical Center, Chennai TN.",
    "city": "Chennai",
    "specialists": [
      "Nephrologist"
    ],
    "insurance": [
      "Star Health",
      "PNB MetLife"
    ],
    "fee": 643,
    "rating": 4.6,
    "reviews": "Processed via AI: Highly recommended for Nephrologist",
    "location": {
      "lat": 13.1125305603138,
      "lng": 80.28099523069807
    }
  },
  {
    "id": 205,
    "external_id": "11415",
    "name": "Kumaran Hospital Kilpauk, Chennai TN.",
    "city": "Chennai",
    "specialists": [
      "General Medicine"
    ],
    "insurance": [
      "Star Health",
      "PNB MetLife"
    ],
    "fee": 404,
    "rating": 5,
    "reviews": "Processed via AI: Highly recommended for General Medicine",
    "location": {
      "lat": 13.078609123911146,
      "lng": 80.27042263275018
    }
  },
  {
    "id": 206,
    "external_id": "11430",
    "name": "Laksha Hospital,Chennai TN.",
    "city": "Chennai",
    "specialists": [
      "General Medicine"
    ],
    "insurance": [
      "Star Health",
      "PNB MetLife"
    ],
    "fee": 627,
    "rating": 4.8,
    "reviews": "Processed via AI: Highly recommended for General Medicine",
    "location": {
      "lat": 13.076914578870081,
      "lng": 80.2689936857881
    }
  },
  {
    "id": 207,
    "external_id": "11380",
    "name": "Lamfer Healthcare Private Ltd, Chennai DC.",
    "city": "Chennai",
    "specialists": [
      "General Medicine"
    ],
    "insurance": [
      "Star Health",
      "PNB MetLife"
    ],
    "fee": 659,
    "rating": 4.8,
    "reviews": "Processed via AI: Highly recommended for General Medicine",
    "location": {
      "lat": 13.108896950983748,
      "lng": 80.28671759832602
    }
  },
  {
    "id": 208,
    "external_id": "11361",
    "name": "Liberty High Scans, Alwarpet, Chennai DC.",
    "city": "Chennai",
    "specialists": [
      "Radiologist"
    ],
    "insurance": [
      "Star Health",
      "PNB MetLife"
    ],
    "fee": 645,
    "rating": 4.8,
    "reviews": "Processed via AI: Highly recommended for Radiologist",
    "location": {
      "lat": 13.05695537593334,
      "lng": 80.26985883105607
    }
  },
  {
    "id": 209,
    "external_id": "11428",
    "name": "Lifeline Multispeciality Hospital, Chennai TN.",
    "city": "Chennai",
    "specialists": [
      "General Physician",
      "Cardiologist",
      "Orthopedic"
    ],
    "insurance": [
      "Star Health",
      "PNB MetLife"
    ],
    "fee": 399,
    "rating": 4.9,
    "reviews": "Processed via AI: Highly recommended for General Physician",
    "location": {
      "lat": 13.100621924465386,
      "lng": 80.22358663260717
    }
  },
  {
    "id": 210,
    "external_id": "11424",
    "name": "M R Hospital,Chennai TN.",
    "city": "Chennai",
    "specialists": [
      "General Medicine"
    ],
    "insurance": [
      "Star Health",
      "PNB MetLife"
    ],
    "fee": 354,
    "rating": 3.8,
    "reviews": "Processed via AI: Highly recommended for General Medicine",
    "location": {
      "lat": 13.100521639003121,
      "lng": 80.2980653222112
    }
  },
  {
    "id": 211,
    "external_id": "11422",
    "name": "M.N Eye Hospital,Chennai TN.",
    "city": "Chennai",
    "specialists": [
      "Ophthalmologist"
    ],
    "insurance": [
      "Star Health",
      "PNB MetLife"
    ],
    "fee": 550,
    "rating": 3.8,
    "reviews": "Processed via AI: Highly recommended for Ophthalmologist",
    "location": {
      "lat": 13.108922645693585,
      "lng": 80.27917262712269
    }
  },
  {
    "id": 212,
    "external_id": "11359",
    "name": "TN.",
    "city": "Chennai",
    "specialists": [
      "General Medicine"
    ],
    "insurance": [
      "Star Health",
      "PNB MetLife"
    ],
    "fee": 487,
    "rating": 4,
    "reviews": "Processed via AI: Highly recommended for General Medicine",
    "location": {
      "lat": 13.126201451670493,
      "lng": 80.28413329414269
    }
  },
  {
    "id": 213,
    "external_id": "11396",
    "name": "Madras ENT Research Foundation,Chennai TN.",
    "city": "Chennai",
    "specialists": [
      "General Medicine"
    ],
    "insurance": [
      "Star Health",
      "PNB MetLife"
    ],
    "fee": 313,
    "rating": 4.2,
    "reviews": "Processed via AI: Highly recommended for General Medicine",
    "location": {
      "lat": 13.122604830881352,
      "lng": 80.2958215631875
    }
  },
  {
    "id": 214,
    "external_id": "11330",
    "name": "Madras Medical College,Chennai TN.",
    "city": "Chennai",
    "specialists": [
      "General Medicine"
    ],
    "insurance": [
      "Star Health",
      "PNB MetLife",
      "CMCHIS (Govt Scheme)"
    ],
    "fee": 0,
    "rating": 4.7,
    "reviews": "Processed via AI: Highly recommended for General Medicine",
    "location": {
      "lat": 13.089919110864548,
      "lng": 80.25859179992199
    }
  },
  {
    "id": 215,
    "external_id": "11370",
    "name": "Madras Scans And Labs, Chennai DC.",
    "city": "Chennai",
    "specialists": [
      "Radiologist"
    ],
    "insurance": [
      "Star Health",
      "PNB MetLife"
    ],
    "fee": 728,
    "rating": 4.5,
    "reviews": "Processed via AI: Highly recommended for Radiologist",
    "location": {
      "lat": 13.047592942386213,
      "lng": 80.3146249649181
    }
  },
  {
    "id": 216,
    "external_id": "11364",
    "name": "Med All ,Kilpauk,Chennai DC.",
    "city": "Chennai",
    "specialists": [
      "General Medicine"
    ],
    "insurance": [
      "Star Health",
      "PNB MetLife"
    ],
    "fee": 646,
    "rating": 4.2,
    "reviews": "Processed via AI: Highly recommended for General Medicine",
    "location": {
      "lat": 13.092145475853181,
      "lng": 80.27166494742768
    }
  },
  {
    "id": 217,
    "external_id": "11423",
    "name": "Medical Research Foundation,Chennai TN.",
    "city": "Chennai",
    "specialists": [
      "General Medicine"
    ],
    "insurance": [
      "Star Health",
      "PNB MetLife"
    ],
    "fee": 525,
    "rating": 3.9,
    "reviews": "Processed via AI: Highly recommended for General Medicine",
    "location": {
      "lat": 13.124619674533708,
      "lng": 80.22690501738064
    }
  },
  {
    "id": 218,
    "external_id": "11472",
    "name": "Medway Heart Institute, Chennai, TN.",
    "city": "CHENNAI",
    "specialists": [
      "General Medicine"
    ],
    "insurance": [
      "Star Health",
      "PNB MetLife"
    ],
    "fee": 541,
    "rating": 4.4,
    "reviews": "Processed via AI: Highly recommended for General Medicine",
    "location": {
      "lat": 11.169710784036884,
      "lng": 78.68791205971765
    }
  },